     3.02           OBSERVATION DATA    G (GPS)             RINEX VERSION / TYPE
Convert 2.6.6       NovAtel             20210624 013931 UTC PGM / RUN BY / DATE 
RINEX Version 3.02 Observation File                         COMMENT             
                                                            MARKER NAME         
                                                            MARKER NUMBER       
                                                            MARKER TYPE         
                                                            OBSERVER / AGENCY   
                    NovAtel GPSCard                         REC # / TYPE / VERS 
                                                            ANT # / TYPE        
        0.0000        0.0000        0.0000                  APPROX POSITION XYZ 
        0.0000        0.0000        0.0000                  ANTENNA: DELTA H/E/N
G   12 C1C L1C D1C S1C C2W L2W D2W S2W C2S L2S D2S S2S      SYS / # / OBS TYPES 
DBHZ                                                        SIGNAL STRENGTH UNIT
     1.000                                                  INTERVAL            
  2021     4    23     8    23    2.0000000     GPS         TIME OF FIRST OBS   
  2021     4    23    10    27   43.0000000     GPS         TIME OF LAST OBS    
G L1C  0.00000  12 G17 G30 G19 G09 G28 G03 G06 G02 G14 G22  SYS / PHASE SHIFT   
                   G12 G05                                  SYS / PHASE SHIFT   
G L2W  0.00000  12 G17 G30 G19 G09 G28 G03 G06 G02 G14 G22  SYS / PHASE SHIFT   
                   G12 G05                                  SYS / PHASE SHIFT   
G L2S -0.25000  08 G17 G30 G09 G03 G06 G14 G12 G05          SYS / PHASE SHIFT   
                                                            GLONASS SLOT / FRQ #
 C1C  -71.950 C2C  -71.950 C2P  -71.950                     GLONASS COD/PHS/BIS 
Leap Seconds Unknown                                        COMMENT             
                                                            END OF HEADER       
> 2021 04 23 08 31 26.0000000  0 10      -0.000000000000
G17  21634967.664 8 113692520.379 8       636.504          50.000    21634970.820 8  88591581.902 8       495.977          50.000    21634971.516 8  88591585.906 8       495.977          49.000  
G30  23953367.758 7 125875792.602 7     -2721.465          45.000    23953379.211 7  98085056.566 7     -2120.621          43.000    23953379.836 7  98085043.570 7     -2120.625          46.000  
G19  21861210.453 8 114881437.867 8      1402.168          49.000    21861212.180 8  89518005.938 8      1092.598          48.000                                                                  
G09  25170798.711 6 132273429.191 6      1730.652          40.000    25170810.578 6 103070208.141 6      1348.555          38.000    25170811.039 7 103070204.148 7      1348.555          42.000  
G28  20320915.141 8 106787126.520 8       273.359          50.000    20320918.141 8  83210747.402 8       213.008          49.000                                                                  
G03  22321641.070 8 117301018.637 8     -1872.102          48.000    22321648.719 7  91403413.105 7     -1458.777          44.000    22321649.414 7  91403411.109 7     -1458.777          46.000  
G06  21438136.695 8 112658169.777 8       894.098          50.000    21438144.883 8  87785596.641 8       696.703          50.000    21438145.977 8  87785607.641 8       696.703          51.000  
G02  24052007.859 7 126394158.004 7      1784.508          47.000    24052016.805 7  98488979.898 7      1390.531          42.000                                                                  
G14  20280956.547 8 106577144.660 8      -907.027          51.000    20280961.469 8  83047136.469 8      -706.777          51.000    20280962.078 8  83047136.469 8      -706.777          51.000  
G22  24835154.742 6 130509621.371 6     -3081.145          41.000    24835157.164 6 101695812.539 6     -2400.887          36.000                                                                  
> 2021 04 23 08 31 27.0000000  0 10      -0.000000000000
G17  21634846.578 8 113691884.043 8       636.629          50.000    21634849.734 8  88591086.059 8       496.074          50.000    21634850.422 8  88591090.059 8       496.074          49.000  
G30  23953885.625 7 125878513.992 7     -2720.855          45.000    23953897.078 7  98087177.133 7     -2120.148          43.000    23953897.703 7  98087164.133 7     -2120.148          46.000  
G19  21860943.641 8 114880035.785 8      1402.488          49.000    21860945.367 8  89516913.406 8      1092.848          48.000                                                                  
G09  25170469.336 6 132271698.355 6      1731.402          40.000    25170481.195 6 103068859.430 6      1349.137          38.000    25170481.672 7 103068855.441 7      1349.137          42.000  
G28  20320863.203 8 106786853.586 8       272.914          49.000    20320866.211 8  83210534.727 8       212.660          49.000                                                                  
G03  22321997.398 8 117302891.137 8     -1872.496          48.000    22322005.039 7  91404872.199 7     -1459.086          44.000    22322005.742 7  91404870.203 7     -1459.086          46.000  
G06  21437966.609 8 112657275.957 8       894.078          50.000    21437974.781 8  87784900.160 8       696.688          50.000    21437975.883 8  87784911.156 8       696.688          51.000  
G02  24051668.336 7 126392373.828 7      1784.355          47.000    24051677.289 7  98487589.641 7      1390.414          42.000                                                                  
G14  20281129.234 8 106578052.145 8      -907.500          51.000    20281134.156 8  83047843.598 8      -707.145          51.000    20281134.766 8  83047843.598 8      -707.145          51.000  
G22  24835741.031 6 130512702.410 6     -3080.793          41.000    24835743.500 5 101698213.355 5     -2400.613          32.000                                                                  
> 2021 04 23 08 31 28.0000000  0 10      -0.000000000000
G17  21634725.484 8 113691247.719 8       636.277          50.000    21634728.641 8  88590590.223 8       495.801          50.000    21634729.336 8  88590594.223 8       495.801          49.000  
G30  23954403.484 7 125881235.340 7     -2721.445          45.000    23954414.945 7  98089297.660 7     -2120.609          43.000    23954415.563 7  98089284.660 7     -2120.609          46.000  
G19  21860676.844 8 114878633.742 8      1402.066          49.000    21860678.570 8  89515820.906 8      1092.520          48.000                                                                  
G09  25170139.930 6 132269967.359 6      1731.059          40.000    25170151.781 6 103067510.598 6      1348.871          39.000    25170152.266 7 103067506.609 7      1348.871          42.000  
G28  20320811.375 8 106786581.191 8       272.059          50.000    20320814.367 8  83210322.469 8       211.992          49.000                                                                  
G03  22322353.828 8 117304764.184 8     -1873.473          48.000    22322361.461 7  91406331.719 7     -1459.848          44.000    22322362.172 7  91406329.723 7     -1459.848          46.000  
G06  21437796.602 8 112656382.531 8       893.234          50.000    21437804.758 8  87784203.984 8       696.027          50.000    21437805.867 8  87784214.984 8       696.027          51.000  
G02  24051328.875 7 126390589.953 7      1783.637          47.000    24051337.813 7  98486199.609 7      1389.852          42.000                                                                  
G14  20281302.039 8 106578960.238 8      -908.391          51.000    20281306.961 8  83048551.199 8      -707.836          51.000    20281307.570 8  83048551.199 8      -707.836          51.000  
G22  24836327.391 6 130515783.703 6     -3081.391          41.000    24836329.836 5 101700614.367 5     -2401.078          32.000                                                                  
> 2021 04 23 08 31 29.0000000  0 10      -0.000000000000
G17  21634604.422 8 113690611.539 8       636.004          50.000    21634607.586 8  88590094.496 8       495.586          50.000    21634608.266 8  88590098.500 8       495.586          49.000  
G30  23954921.336 7 125883956.707 7     -2721.395          45.000    23954932.805 7  98091418.203 7     -2120.570          43.000    23954933.422 7  98091405.203 7     -2120.570          46.000  
G19  21860410.070 8 114877231.867 8      1401.684          49.000    21860411.797 8  89514728.535 8      1092.219          48.000                                                                  
G09  25169810.539 6 132268236.344 6      1730.777          40.000    25169822.398 6 103066161.746 6      1348.652          39.000    25169822.859 6 103066157.758 6      1348.652          41.000  
G28  20320759.672 8 106786309.480 8       271.270          49.000    20320762.664 8  83210110.746 8       211.379          49.000                                                                  
G03  22322710.375 8 117306637.918 8     -1874.125          48.000    22322718.016 7  91407791.773 7     -1460.355          44.000    22322718.734 7  91407789.777 7     -1460.355          46.000  
G06  21437626.672 8 112655489.609 8       892.645          50.000    21437634.836 8  87783508.203 8       695.570          50.000    21437635.938 8  87783519.203 8       695.570          51.000  
G02  24050989.484 7 126388806.488 7      1783.082          47.000    24050998.422 7  98484809.902 7      1389.418          42.000                                                                  
G14  20281474.984 8 106579869.055 8      -909.340          51.000    20281479.914 8  83049259.371 8      -708.578          51.000    20281480.516 8  83049259.371 8      -708.578          51.000  
G22  24836913.805 6 130518865.391 6     -3081.793          41.000    24836916.227 5 101703015.680 5     -2401.395          35.000                                                                  
> 2021 04 23 08 31 30.0000000  0 10      -0.000000000000
G17  21634483.375 8 113689975.445 8       636.035          50.000    21634486.539 8  88589598.840 8       495.613          50.000    21634487.227 8  88589602.840 8       495.613          49.000  
G30  23955439.203 7 125886678.086 7     -2721.457          45.000    23955450.656 7  98093538.754 7     -2120.617          44.000    23955451.273 7  98093525.758 7     -2120.617          46.000  
G19  21860143.328 8 114875830.102 8      1401.594          49.000    21860145.039 8  89513636.250 8      1092.152          48.000                                                                  
G09  25169481.109 6 132266505.246 6      1730.922          40.000    25169492.984 6 103064812.844 6      1348.766          39.000    25169493.453 7 103064808.844 7      1348.766          42.000  
G28  20320708.078 8 106786038.375 8       270.664          49.000    20320711.070 8  83209899.492 8       210.906          49.000                                                                  
G03  22323067.055 8 117308512.301 8     -1874.848          48.000    22323074.695 7  91409252.336 7     -1460.918          44.000    22323075.406 7  91409250.336 7     -1460.918          46.000  
G06  21437456.844 8 112654597.156 8       892.105          50.000    21437465.000 8  87782812.789 8       695.152          50.000    21437466.109 8  87782823.789 8       695.152          51.000  
G02  24050650.172 7 126387023.387 7      1782.820          46.000    24050659.109 7  98483420.480 7      1389.219          43.000                                                                  
G14  20281648.055 8 106580778.535 8      -909.734          51.000    20281652.984 8  83049968.055 8      -708.883          50.000    20281653.586 8  83049968.055 8      -708.883          51.000  
G22  24837500.281 6 130521947.418 6     -3082.367          41.000    24837502.766 5 101705417.266 5     -2401.840          35.000                                                                  
> 2021 04 23 08 31 31.0000000  0 10      -0.000000000000
G17  21634362.352 8 113689339.496 8       636.113          50.000    21634365.523 8  88589103.289 8       495.672          50.000    21634366.203 8  88589107.293 8       495.672          49.000  
G30  23955957.078 7 125889399.516 7     -2721.375          45.000    23955968.531 7  98095659.348 7     -2120.555          44.000    23955969.156 7  98095646.352 7     -2120.555          46.000  
G19  21859876.609 8 114874428.477 8      1401.695          49.000    21859878.320 8  89512544.074 8      1092.230          48.000                                                                  
G09  25169151.680 6 132264774.094 6      1731.379          40.000    25169163.516 6 103063463.887 6      1349.125          38.000    25169164.031 6 103063459.891 6      1349.121          41.000  
G28  20320656.609 8 106785767.930 8       270.387          49.000    20320659.602 8  83209688.754 8       210.691          49.000                                                                  
G03  22323423.867 8 117310387.352 8     -1875.211          49.000    22323431.492 7  91410713.414 7     -1461.199          44.000    22323432.219 7  91410711.414 7     -1461.199          46.000  
G06  21437287.102 8 112653705.188 8       891.965          50.000    21437295.258 8  87782117.750 8       695.039          50.000    21437296.367 8  87782128.750 8       695.039          51.000  
G02  24050310.930 7 126385240.703 7      1782.652          47.000    24050319.875 7  98482031.387 7      1389.086          42.000                                                                  
G14  20281821.258 8 106581688.758 8      -910.371          51.000    20281826.195 8  83050677.316 8      -709.383          51.000    20281826.797 8  83050677.316 8      -709.383          51.000  
G22  24838086.836 6 130525029.801 6     -3082.219          41.000    24838089.352 5 101707819.137 5     -2401.723          35.000                                                                  
> 2021 04 23 08 31 32.0000000  0 10      -0.000000000000
G17  21634241.328 8 113688703.559 8       636.023          50.000    21634244.500 8  88588607.758 8       495.602          50.000    21634245.188 8  88588611.758 8       495.602          49.000  
G30  23956474.922 7 125892120.852 7     -2720.910          45.000    23956486.375 7  98097779.867 7     -2120.191          43.000    23956487.016 7  98097766.867 7     -2120.191          46.000  
G19  21859609.898 8 114873026.914 8      1401.664          50.000    21859611.617 8  89511451.949 8      1092.207          48.000                                                                  
G09  25168822.234 6 132263042.836 6      1731.527          40.000    25168834.070 6 103062114.852 6      1349.238          38.000    25168834.586 7 103062110.852 7      1349.238          42.000  
G28  20320605.258 8 106785498.055 8       269.613          49.000    20320608.250 8  83209478.461 8       210.086          49.000                                                                  
G03  22323780.781 8 117312262.992 8     -1875.977          48.000    22323788.422 7  91412174.957 7     -1461.797          44.000    22323789.133 7  91412172.957 7     -1461.797          46.000  
G06  21437117.445 8 112652813.621 8       891.586          50.000    21437125.586 8  87781423.023 8       694.742          50.000    21437126.695 8  87781434.023 8       694.742          51.000  
G02  24049971.742 7 126383458.340 7      1782.305          47.000    24049980.703 7  98480642.539 7      1388.816          42.000                                                                  
G14  20281994.586 8 106582599.582 8      -910.930          51.000    20281999.523 8  83051387.051 8      -709.816          51.000    20282000.125 8  83051387.051 8      -709.816          51.000  
G22  24838673.438 6 130528112.434 6     -3082.434          41.000    24838675.914 5 101710221.180 5     -2401.895          32.000                                                                  
> 2021 04 23 08 31 33.0000000  0 10      -0.000000000000
G17  21634120.328 8 113688067.711 8       635.707          50.000    21634123.508 8  88588112.289 8       495.355          51.000    21634124.180 8  88588116.289 8       495.355          49.000  
G30  23956992.781 7 125894842.215 7     -2721.398          45.000    23957004.227 7  98099900.410 7     -2120.574          43.000    23957004.883 7  98099887.410 7     -2120.574          46.000  
G19  21859343.203 8 114871625.438 8      1401.352          50.000    21859344.922 8  89510359.887 8      1091.961          48.000                                                                  
G09  25168492.773 6 132261311.465 6      1731.129          40.000    25168504.578 6 103060765.727 6      1348.926          38.000    25168505.102 6 103060761.727 6      1348.926          41.000  
G28  20320554.016 8 106785228.754 8       268.883          50.000    20320557.000 8  83209268.617 8       209.520          49.000                                                                  
G03  22324137.813 8 117314139.238 8     -1876.953          49.000    22324145.453 7  91413636.969 7     -1462.559          44.000    22324146.172 7  91413634.969 7     -1462.559          46.000  
G06  21436947.867 8 112651922.504 8       890.828          50.000    21436956.000 8  87780728.652 8       694.152          50.000    21436957.117 8  87780739.652 8       694.152          51.000  
G02  24049632.633 7 126381676.324 7      1781.711          46.000    24049641.594 7  98479253.961 7      1388.352          43.000                                                                  
G14  20282168.039 8 106583511.086 8      -912.051          51.000    20282172.977 8  83052097.309 8      -710.691          50.000    20282173.578 8  83052097.309 8      -710.691          51.000  
G22  24839260.102 6 130531195.391 6     -3083.035          41.000    24839262.547 6 101712623.492 6     -2402.359          36.000                                                                  
