#INSPVAXA,FILE,0,65.5,FINESTEERING,2076,463110.400,00000000,4e14,14102;INS_SOLUTION_GOOD,INS_PSRSP,22.87972598952,113.86867622455,42.2159,-4.3000,-0.0002,-0.0002,0.0007,-0.027032223,-1.381149308,261.597454745,0.1051,0.0889,0.1607,0.0010,0.0017,0.0016,0.0054,0.0054,0.0814,000000c3,0*e496c4a1
#INSPVAXA,FILE,0,65.5,FINESTEERING,2076,463110.600,00000000,4e14,14102;INS_SOLUTION_GOOD,INS_PSRSP,22.87972598990,113.86867622132,42.2169,-4.3000,0.0012,-0.0005,-0.0006,-0.035801988,-1.387419545,261.599133114,0.1051,0.0889,0.1607,0.0010,0.0017,0.0016,0.0054,0.0054,0.0814,000000c3,0*d38e590d
#INSPVAXA,FILE,0,66.0,FINESTEERING,2076,463110.800,00000000,4e14,14102;INS_SOLUTION_GOOD,INS_PSRSP,22.87972599371,113.86867621464,42.2176,-4.3000,0.0011,0.0002,-0.0011,-0.029574013,-1.390357253,261.598476864,0.1051,0.0889,0.1607,0.0010,0.0017,0.0016,0.0054,0.0054,0.0814,000000c3,0*966cd495
#INSPVAXA,FILE,0,66.0,FINESTEERING,2076,463111.000,00000000,4e14,14102;INS_SOLUTION_GOOD,INS_PSRSP,22.87972599500,113.86867621043,42.2183,-4.3000,0.0019,-0.0010,0.0005,-0.034830215,-1.389570452,261.599568491,0.1051,0.0889,0.1607,0.0010,0.0017,0.0016,0.0054,0.0054,0.0814,000000c3,0*d4e99cbe
#INSPVAXA,FILE,0,66.0,FINESTEERING,2076,463111.200,00000000,4e14,14102;INS_SOLUTION_GOOD,INS_PSRSP,22.87972599971,113.86867620050,42.2194,-4.3000,0.0010,-0.0002,-0.0003,-0.033253864,-1.388625360,261.599899086,0.1047,0.0886,0.1602,0.0012,0.0022,0.0020,0.0055,0.0056,0.0815,000000c3,0*9d581496
#INSPVAXA,FILE,0,66.0,FINESTEERING,2076,463111.400,00000000,4e14,14102;INS_SOLUTION_GOOD,INS_PSRSP,22.87972600412,113.86867619030,42.2206,-4.3000,0.0029,-0.0013,-0.0008,-0.037455976,-1.388034472,261.598740134,0.1047,0.0886,0.1602,0.0012,0.0022,0.0020,0.0055,0.0056,0.0815,000000c3,0*a20b5f78
#INSPVAXA,FILE,0,59.0,FINESTEERING,2076,463111.600,00000000,4e14,14102;INS_SOLUTION_GOOD,INS_PSRSP,22.87972600967,113.86867617959,42.2218,-4.3000,0.0008,-0.0009,0.0003,-0.034961594,-1.388888588,261.597442548,0.1047,0.0886,0.1602,0.0012,0.0022,0.0020,0.0055,0.0056,0.0815,000000c3,0*0f95fd3d
#INSPVAXA,FILE,0,59.0,FINESTEERING,2076,463111.800,00000000,4e14,14102;INS_SOLUTION_GOOD,INS_PSRSP,22.87972601391,113.86867616841,42.2231,-4.3000,0.0034,-0.0008,0.0010,-0.033026508,-1.389991906,261.598591022,0.1047,0.0886,0.1602,0.0012,0.0022,0.0020,0.0055,0.0056,0.0815,000000c3,0*7fabe0dc
#INSPVAXA,FILE,0,59.0,FINESTEERING,2076,463112.000,00000000,4e14,14102;INS_SOLUTION_GOOD,INS_PSRSP,22.87972601868,113.86867615960,42.2254,-4.3000,0.0009,0.0015,0.0080,-0.028398963,-1.408405029,261.599776530,0.1047,0.0886,0.1602,0.0012,0.0022,0.0020,0.0055,0.0056,0.0815,000000c3,0*8d6e702c
#INSPVAXA,FILE,0,59.0,FINESTEERING,2076,463112.200,00000000,4e14,14102;INS_SOLUTION_GOOD,INS_PSRSP,22.87972602396,113.86867614816,42.2288,-4.3000,0.0022,-0.0010,0.0009,-0.035474928,-1.433277714,261.601368989,0.1044,0.0883,0.1597,0.0014,0.0025,0.0024,0.0057,0.0057,0.0815,000000c3,0*85355a28
#INSPVAXA,FILE,0,59.0,FINESTEERING,2076,463112.400,00000000,4e14,14102;INS_SOLUTION_GOOD,INS_PSRSP,22.87972603220,113.86867613019,42.2310,-4.3000,0.0015,0.0006,0.0000,-0.028817128,-1.431852681,261.601321511,0.1044,0.0883,0.1597,0.0014,0.0025,0.0024,0.0057,0.0057,0.0815,000000c3,0*14fed5be
#INSPVAXA,FILE,0,59.0,FINESTEERING,2076,463112.600,00000000,4e14,14102;INS_SOLUTION_GOOD,INS_PSRSP,22.87972603854,113.86867611440,42.2334,-4.3000,0.0008,-0.0019,-0.0000,-0.032821041,-1.433179813,261.598940679,0.1044,0.0883,0.1597,0.0014,0.0025,0.0024,0.0057,0.0057,0.0815,000000c3,0*1ffe2c39
#INSPVAXA,FILE,0,60.5,FINESTEERING,2076,463112.800,00000000,4e14,14102;INS_SOLUTION_GOOD,INS_PSRSP,22.87972604651,113.86867609691,42.2358,-4.3000,0.0027,-0.0001,-0.0008,-0.028472667,-1.429336984,261.600169335,0.1044,0.0883,0.1597,0.0014,0.0025,0.0024,0.0057,0.0057,0.0815,000000c3,0*66c7566c
#INSPVAXA,FILE,0,60.5,FINESTEERING,2076,463113.000,00000000,4e14,14102;INS_SOLUTION_GOOD,INS_PSRSP,22.87972605312,113.86867607952,42.2382,-4.3000,0.0020,-0.0020,-0.0005,-0.031373960,-1.432830057,261.600346564,0.1044,0.0883,0.1597,0.0014,0.0025,0.0024,0.0057,0.0057,0.0815,000000c3,0*356b5c9b
#INSPVAXA,FILE,0,60.5,FINESTEERING,2076,463113.200,00000000,4e14,14102;INS_SOLUTION_GOOD,INS_PSRSP,22.87972606069,113.86867606913,42.2394,-4.3000,0.0013,-0.0002,-0.0008,-0.029569876,-1.429196549,261.601470487,0.1041,0.0880,0.1593,0.0015,0.0029,0.0027,0.0057,0.0058,0.0815,000000c3,0*c3daaf88
#INSPVAXA,FILE,0,60.5,FINESTEERING,2076,463113.400,00000000,4e14,14102;INS_SOLUTION_GOOD,INS_PSRSP,22.87972606644,113.86867605893,42.2403,-4.3000,0.0022,-0.0011,-0.0006,-0.031533449,-1.432049356,261.603036535,0.1041,0.0880,0.1593,0.0015,0.0029,0.0027,0.0057,0.0058,0.0815,000000c3,0*b353d9ce
#INSPVAXA,FILE,0,60.0,FINESTEERING,2076,463113.600,00000000,4e14,14102;INS_SOLUTION_GOOD,INS_PSRSP,22.87972607424,113.86867604936,42.2414,-4.3000,0.0017,-0.0023,-0.0000,-0.028041300,-1.430040874,261.601848981,0.1041,0.0880,0.1593,0.0015,0.0029,0.0027,0.0057,0.0058,0.0815,000000c3,0*c27ac3d7
#INSPVAXA,FILE,0,60.0,FINESTEERING,2076,463113.800,00000000,4e14,14102;INS_SOLUTION_GOOD,INS_PSRSP,22.87972608327,113.86867603867,42.2433,-4.3000,0.0045,-0.0004,0.0089,-0.022559786,-1.452069134,261.597755091,0.1041,0.0880,0.1593,0.0015,0.0029,0.0027,0.0057,0.0058,0.0815,000000c3,0*e2f70dc4
#INSPVAXA,FILE,0,60.0,FINESTEERING,2076,463114.000,00000000,4e14,14102;INS_SOLUTION_GOOD,INS_PSRSP,22.87972608904,113.86867603510,42.2466,-4.3000,-0.0006,0.0017,0.0080,-0.030259696,-1.500101263,261.604145573,0.1041,0.0880,0.1593,0.0015,0.0029,0.0027,0.0057,0.0058,0.0815,000000c3,0*55388aef
#INSPVAXA,FILE,0,60.0,FINESTEERING,2076,463114.200,00000000,4e14,14102;INS_SOLUTION_GOOD,INS_PSRSP,22.87972609653,113.86867602099,42.2477,-4.3000,0.0031,-0.0034,-0.0019,-0.029148246,-1.502523880,261.601800987,0.1039,0.0878,0.1588,0.0017,0.0031,0.0029,0.0058,0.0058,0.0816,000000c3,0*c2a4bde7
#INSPVAXA,FILE,0,60.0,FINESTEERING,2076,463114.400,00000000,4e14,14102;INS_SOLUTION_GOOD,INS_PSRSP,22.87972610358,113.86867600753,42.2487,-4.3000,0.0006,-0.0021,-0.0013,-0.028911279,-1.502042786,261.603030920,0.1039,0.0878,0.1588,0.0017,0.0031,0.0029,0.0058,0.0058,0.0816,000000c3,0*424ae8cb
#INSPVAXA,FILE,0,60.0,FINESTEERING,2076,463114.600,00000000,4e14,14102;INS_SOLUTION_GOOD,INS_PSRSP,22.87972611001,113.86867599173,42.2498,-4.3000,0.0021,-0.0039,-0.0001,-0.031706775,-1.504257395,261.603402092,0.1039,0.0878,0.1588,0.0017,0.0031,0.0029,0.0058,0.0058,0.0816,000000c3,0*39b15d55
#INSPVAXA,FILE,0,61.0,FINESTEERING,2076,463114.800,00000000,4e14,14102;INS_SOLUTION_GOOD,INS_PSRSP,22.87972611740,113.86867597809,42.2508,-4.3000,0.0005,-0.0022,0.0001,-0.031365727,-1.502026635,261.601713786,0.1039,0.0878,0.1588,0.0017,0.0031,0.0029,0.0058,0.0058,0.0816,000000c3,0*40c61b06
#INSPVAXA,FILE,0,61.0,FINESTEERING,2076,463115.000,00000000,4e14,14102;INS_SOLUTION_GOOD,INS_PSRSP,22.87972612370,113.86867596230,42.2519,-4.3000,0.0005,-0.0033,0.0001,-0.031296639,-1.507521073,261.600891406,0.1039,0.0878,0.1588,0.0017,0.0031,0.0029,0.0058,0.0058,0.0816,000000c3,0*9ae09741
#INSPVAXA,FILE,0,61.0,FINESTEERING,2076,463115.200,00000000,4e14,14102;INS_SOLUTION_GOOD,INS_PSRSP,22.87972612554,113.86867595279,42.2530,-4.3000,0.0002,-0.0028,-0.0004,-0.032526685,-1.500270215,261.602688701,0.1037,0.0876,0.1584,0.0018,0.0033,0.0031,0.0058,0.0058,0.0816,000000c3,0*97b84918
#INSPVAXA,FILE,0,61.0,FINESTEERING,2076,463115.400,00000000,4e14,14102;INS_SOLUTION_GOOD,INS_PSRSP,22.87972612668,113.86867594288,42.2541,-4.3000,0.0015,-0.0016,-0.0004,-0.032167309,-1.502291518,261.601363614,0.1037,0.0876,0.1584,0.0018,0.0033,0.0031,0.0058,0.0058,0.0816,000000c3,0*8540391e
#INSPVAXA,FILE,0,60.0,FINESTEERING,2076,463115.600,00000000,4e14,14102;INS_SOLUTION_GOOD,INS_PSRSP,22.87972612737,113.86867593348,42.2553,-4.3000,-0.0000,-0.0022,0.0002,-0.034083323,-1.500089460,261.599953085,0.1037,0.0876,0.1584,0.0018,0.0033,0.0031,0.0058,0.0058,0.0816,000000c3,0*4c648c8f
#INSPVAXA,FILE,0,60.0,FINESTEERING,2076,463115.800,00000000,4e14,14102;INS_SOLUTION_GOOD,INS_PSRSP,22.87972612779,113.86867592401,42.2564,-4.3000,0.0011,-0.0008,-0.0002,-0.034328023,-1.501914376,261.601546724,0.1037,0.0876,0.1584,0.0018,0.0033,0.0031,0.0058,0.0058,0.0816,000000c3,0*2b52d527
#INSPVAXA,FILE,0,60.0,FINESTEERING,2076,463116.000,00000000,4e14,14102;INS_SOLUTION_GOOD,INS_PSRSP,22.87972612785,113.86867591363,42.2575,-4.3000,-0.0021,-0.0038,-0.0003,-0.033420496,-1.503465256,261.598387586,0.1037,0.0876,0.1584,0.0018,0.0033,0.0031,0.0058,0.0058,0.0816,000000c3,0*9ee18094
#INSPVAXA,FILE,0,60.0,FINESTEERING,2076,463116.200,00000000,4e14,14102;INS_SOLUTION_GOOD,INS_PSRSP,22.87972613392,113.86867590604,42.2586,-4.3000,0.0028,-0.0015,-0.0004,-0.031684461,-1.500403637,261.600223217,0.1035,0.0875,0.1579,0.0019,0.0034,0.0032,0.0058,0.0058,0.0816,000000c3,0*3b97bb08
#INSPVAXA,FILE,0,60.0,FINESTEERING,2076,463116.400,00000000,4e14,14102;INS_SOLUTION_GOOD,INS_PSRSP,22.87972613943,113.86867589760,42.2596,-4.3000,-0.0022,-0.0018,0.0003,-0.035653389,-1.506258786,261.599816956,0.1035,0.0875,0.1579,0.0019,0.0034,0.0032,0.0058,0.0058,0.0816,000000c3,0*31548692
#INSPVAXA,FILE,0,60.0,FINESTEERING,2076,463116.600,00000000,4e14,14102;INS_SOLUTION_GOOD,INS_PSRSP,22.87972614630,113.86867588960,42.2606,-4.3000,0.0004,-0.0017,-0.0003,-0.032954917,-1.503805591,261.599294928,0.1035,0.0875,0.1579,0.0019,0.0034,0.0032,0.0058,0.0058,0.0816,000000c3,0*6ca63448
#INSPVAXA,FILE,0,60.5,FINESTEERING,2076,463116.800,00000000,4e14,14102;INS_SOLUTION_GOOD,INS_PSRSP,22.87972615160,113.86867588098,42.2616,-4.3000,-0.0007,-0.0018,-0.0003,-0.033928179,-1.506992838,261.599026869,0.1035,0.0875,0.1579,0.0019,0.0034,0.0032,0.0058,0.0058,0.0816,000000c3,0*f1aefa26
#INSPVAXA,FILE,0,60.5,FINESTEERING,2076,463117.000,00000000,4e14,14102;INS_SOLUTION_GOOD,INS_PSRSP,22.87972615752,113.86867587196,42.2626,-4.3000,0.0009,-0.0034,-0.0002,-0.031564987,-1.505178572,261.599700574,0.1035,0.0875,0.1579,0.0019,0.0034,0.0032,0.0058,0.0058,0.0816,000000c3,0*0b5b6d7a
#INSPVAXA,FILE,0,60.5,FINESTEERING,2076,463117.200,00000000,4e14,14102;INS_SOLUTION_GOOD,INS_PSRSP,22.87972615820,113.86867588716,42.2628,-4.3000,0.0002,0.0015,-0.0004,-0.033866259,-1.503492205,261.601835612,0.1031,0.0871,0.1579,0.0011,0.0014,0.0014,0.0051,0.0051,0.0817,000000c3,0*17c99f10
#INSPVAXA,FILE,0,60.5,FINESTEERING,2076,463117.400,00000000,4e14,14102;INS_SOLUTION_GOOD,INS_PSRSP,22.87972615846,113.86867589781,42.2627,-4.3000,-0.0020,-0.0002,0.0002,-0.032389402,-1.505234997,261.600260541,0.1031,0.0871,0.1579,0.0011,0.0014,0.0014,0.0051,0.0051,0.0817,000000c3,0*706e23d6
#INSPVAXA,FILE,0,60.0,FINESTEERING,2076,463117.600,00000000,4e14,14102;INS_SOLUTION_GOOD,INS_PSRSP,22.87972615850,113.86867590852,42.2627,-4.3000,0.0014,0.0006,-0.0002,-0.032316828,-1.500835640,261.602461836,0.1031,0.0871,0.1579,0.0011,0.0014,0.0014,0.0051,0.0051,0.0817,000000c3,0*7ae45489
#INSPVAXA,FILE,0,60.0,FINESTEERING,2076,463117.800,00000000,4e14,14102;INS_SOLUTION_GOOD,INS_PSRSP,22.87972615826,113.86867591910,42.2626,-4.3000,-0.0033,-0.0021,-0.0111,-0.036375923,-1.484376130,261.604459568,0.1031,0.0871,0.1579,0.0011,0.0014,0.0014,0.0051,0.0051,0.0817,000000c3,0*f7f721d5
#INSPVAXA,FILE,0,60.0,FINESTEERING,2076,463118.000,00000000,4e14,14102;INS_SOLUTION_GOOD,INS_PSRSP,22.87972615759,113.86867592874,42.2622,-4.3000,-0.0017,-0.0029,-0.0034,-0.041761397,-1.447886059,261.601829247,0.1031,0.0871,0.1579,0.0011,0.0014,0.0014,0.0051,0.0051,0.0817,000000c3,0*906a7908
#INSPVAXA,FILE,0,60.0,FINESTEERING,2076,463118.200,00000000,4e14,14102;INS_SOLUTION_GOOD,INS_PSRSP,22.87972615784,113.86867596587,42.2610,-4.3000,-0.0012,0.0009,-0.0005,-0.037582633,-1.445376791,261.604390675,0.1028,0.0868,0.1574,0.0012,0.0016,0.0016,0.0053,0.0053,0.0817,00000044,0*78bf6ea1
#INSPVAXA,FILE,0,60.0,FINESTEERING,2076,463118.400,00000000,4e14,14102;INS_SOLUTION_GOOD,INS_PSRSP,22.87972615926,113.86867595477,42.2618,-4.3000,-0.0020,-0.0011,-0.0005,-0.041522887,-1.444230785,261.601702888,0.1028,0.0868,0.1574,0.0012,0.0016,0.0016,0.0053,0.0053,0.0817,00000044,0*b07a88c9
#INSPVAXA,FILE,0,60.0,FINESTEERING,2076,463118.600,00000000,4e14,14102;INS_SOLUTION_GOOD,INS_PSRSP,22.87972616422,113.86867594615,42.2628,-4.3000,0.0007,-0.0008,-0.0013,-0.032887740,-1.435108871,261.601399170,0.1028,0.0868,0.1574,0.0012,0.0016,0.0016,0.0053,0.0053,0.0817,00000044,0*072e1572
#INSPVAXA,FILE,0,61.0,FINESTEERING,2076,463118.800,00000000,4e14,14102;INS_SOLUTION_GOOD,INS_PSRSP,22.87972616519,113.86867593434,42.2638,-4.3000,-0.0026,-0.0006,0.0009,-0.038421049,-1.440074442,261.601355595,0.1028,0.0868,0.1574,0.0012,0.0016,0.0016,0.0053,0.0053,0.0817,00000044,0*30e5774b
#INSPVAXA,FILE,0,61.0,FINESTEERING,2076,463119.000,00000000,4e14,14102;INS_SOLUTION_GOOD,INS_PSRSP,22.87972616871,113.86867592531,42.2648,-4.3000,-0.0013,-0.0004,0.0001,-0.031511047,-1.432120672,261.600080627,0.1028,0.0868,0.1574,0.0012,0.0016,0.0016,0.0053,0.0053,0.0817,00000044,0*14d693f1
#INSPVAXA,FILE,0,61.0,FINESTEERING,2076,463119.200,00000000,4e14,14102;INS_SOLUTION_GOOD,INS_PSRSP,22.87972617100,113.86867591649,42.2657,-4.3000,-0.0021,0.0006,-0.0011,-0.032494570,-1.428317581,261.599253169,0.1025,0.0866,0.1570,0.0014,0.0020,0.0019,0.0055,0.0055,0.0817,000000c3,0*d9738c1e
#INSPVAXA,FILE,0,61.0,FINESTEERING,2076,463119.400,00000000,4e14,14102;INS_SOLUTION_GOOD,INS_PSRSP,22.87972617426,113.86867590867,42.2667,-4.3000,-0.0007,-0.0009,-0.0001,-0.030192783,-1.427307907,261.600150041,0.1025,0.0866,0.1570,0.0014,0.0020,0.0019,0.0055,0.0055,0.0817,000000c3,0*f5da2af8
#INSPVAXA,FILE,0,60.5,FINESTEERING,2076,463119.600,00000000,4e14,14102;INS_SOLUTION_GOOD,INS_PSRSP,22.87972617707,113.86867590125,42.2678,-4.3000,-0.0017,0.0006,0.0005,-0.032819212,-1.426409387,261.600435716,0.1025,0.0866,0.1570,0.0014,0.0020,0.0019,0.0055,0.0055,0.0817,000000c3,0*c7c15320
#INSPVAXA,FILE,0,60.5,FINESTEERING,2076,463119.800,00000000,4e14,14102;INS_SOLUTION_GOOD,INS_PSRSP,22.87972618022,113.86867589339,42.2689,-4.3000,-0.0028,-0.0003,0.0002,-0.030262932,-1.429041191,261.598917401,0.1025,0.0866,0.1570,0.0014,0.0020,0.0019,0.0055,0.0055,0.0817,000000c3,0*10c7725b
#INSPVAXA,FILE,0,60.5,FINESTEERING,2076,463120.000,00000000,4e14,14102;INS_SOLUTION_GOOD,INS_PSRSP,22.87972618194,113.86867588637,42.2700,-4.3000,-0.0011,0.0001,0.0000,-0.032311589,-1.427642690,261.600535856,0.1025,0.0866,0.1570,0.0014,0.0020,0.0019,0.0055,0.0055,0.0817,000000c3,0*5ba160fa
#INSPVAXA,FILE,0,60.5,FINESTEERING,2076,463120.200,00000000,4e14,14102;INS_SOLUTION_GOOD,INS_PSRSP,22.87972618221,113.86867587842,42.2711,-4.3000,-0.0031,-0.0009,0.0005,-0.032741201,-1.430361939,261.599444141,0.1022,0.0863,0.1566,0.0015,0.0023,0.0022,0.0056,0.0057,0.0818,000000c3,0*89a11b4e
#INSPVAXA,FILE,0,60.5,FINESTEERING,2076,463120.400,00000000,4e14,14102;INS_SOLUTION_GOOD,INS_PSRSP,22.87972618144,113.86867587060,42.2722,-4.3000,-0.0014,0.0003,0.0002,-0.032705394,-1.427740661,261.600978541,0.1022,0.0863,0.1566,0.0015,0.0023,0.0022,0.0056,0.0057,0.0818,000000c3,0*d7e795d9
#INSPVAXA,FILE,0,59.0,FINESTEERING,2076,463120.600,00000000,4e14,14102;INS_SOLUTION_GOOD,INS_PSRSP,22.87972618099,113.86867586242,42.2732,-4.3000,-0.0033,0.0006,0.0006,-0.031763823,-1.429872786,261.599598729,0.1022,0.0863,0.1566,0.0015,0.0023,0.0022,0.0056,0.0057,0.0818,000000c3,0*2d936860
#INSPVAXA,FILE,0,59.0,FINESTEERING,2076,463120.800,00000000,4e14,14102;INS_SOLUTION_GOOD,INS_PSRSP,22.87972617940,113.86867585450,42.2742,-4.3000,-0.0029,0.0000,0.0000,-0.031319592,-1.426253243,261.598131998,0.1022,0.0863,0.1566,0.0015,0.0023,0.0022,0.0056,0.0057,0.0818,000000c3,0*53399acf
#INSPVAXA,FILE,0,59.0,FINESTEERING,2076,463121.000,00000000,4e14,14102;INS_SOLUTION_GOOD,INS_PSRSP,22.87972617787,113.86867584664,42.2753,-4.3000,-0.0020,0.0004,-0.0001,-0.031405463,-1.426077170,261.599001448,0.1022,0.0863,0.1566,0.0015,0.0023,0.0022,0.0056,0.0057,0.0818,000000c3,0*a35501c6
#INSPVAXA,FILE,0,59.0,FINESTEERING,2076,463121.200,00000000,4e14,14102;INS_SOLUTION_GOOD,INS_PSRSP,22.87972618075,113.86867584429,42.2755,-4.3000,-0.0022,-0.0010,0.0004,-0.030257705,-1.426515736,261.599188694,0.1022,0.0863,0.1565,0.0011,0.0013,0.0013,0.0051,0.0051,0.0818,000000c3,0*0b338ead
#INSPVAXA,FILE,0,59.0,FINESTEERING,2076,463121.400,00000000,4e14,14102;INS_SOLUTION_GOOD,INS_PSRSP,22.87972618297,113.86867584325,42.2755,-4.3000,-0.0009,0.0002,0.0003,-0.029875202,-1.425868272,261.599085542,0.1022,0.0863,0.1565,0.0011,0.0013,0.0013,0.0051,0.0051,0.0818,000000c3,0*eaa03c64
#INSPVAXA,FILE,0,59.0,FINESTEERING,2076,463121.600,00000000,4e14,14102;INS_SOLUTION_GOOD,INS_PSRSP,22.87972618498,113.86867584220,42.2756,-4.3000,-0.0035,-0.0016,0.0004,-0.030280970,-1.430334835,261.597179259,0.1022,0.0863,0.1565,0.0011,0.0013,0.0013,0.0051,0.0051,0.0818,000000c3,0*0a7bfc79
#INSPVAXA,FILE,0,59.0,FINESTEERING,2076,463121.800,00000000,4e14,14102;INS_SOLUTION_GOOD,INS_PSRSP,22.87972618699,113.86867584123,42.2757,-4.3000,-0.0004,-0.0005,-0.0003,-0.030230282,-1.425185094,261.599268466,0.1022,0.0863,0.1565,0.0011,0.0013,0.0013,0.0051,0.0051,0.0818,000000c3,0*213987c4
#INSPVAXA,FILE,0,59.0,FINESTEERING,2076,463122.000,00000000,4e14,14102;INS_SOLUTION_GOOD,INS_PSRSP,22.87972618887,113.86867584029,42.2757,-4.3000,-0.0012,-0.0002,0.0007,-0.032463331,-1.428706262,261.599334675,0.1022,0.0863,0.1565,0.0011,0.0013,0.0013,0.0051,0.0051,0.0818,000000c3,0*b1a6c56f
#INSPVAXA,FILE,0,59.0,FINESTEERING,2076,463122.200,00000000,4e14,14102;INS_SOLUTION_GOOD,INS_PSRSP,22.87972619014,113.86867583957,42.2757,-4.3000,-0.0031,-0.0006,0.0007,-0.031896803,-1.430316303,261.597757571,0.1022,0.0863,0.1565,0.0009,0.0011,0.0011,0.0051,0.0051,0.0818,00000044,0*b627a5e3
#INSPVAXA,FILE,0,59.0,FINESTEERING,2076,463122.400,00000000,4e14,14102;INS_SOLUTION_GOOD,INS_PSRSP,22.87972619078,113.86867583900,42.2757,-4.3000,-0.0005,0.0002,-0.0003,-0.032744713,-1.428335939,261.596875073,0.1022,0.0863,0.1565,0.0009,0.0011,0.0011,0.0051,0.0051,0.0818,00000044,0*833813d0
#INSPVAXA,FILE,0,59.0,FINESTEERING,2076,463122.600,00000000,4e14,14102;INS_SOLUTION_GOOD,INS_PSRSP,22.87972619106,113.86867583853,42.2757,-4.3000,-0.0029,-0.0006,-0.0001,-0.031114002,-1.428744641,261.596828330,0.1022,0.0863,0.1565,0.0009,0.0011,0.0011,0.0051,0.0051,0.0818,00000044,0*36193008
#INSPVAXA,FILE,0,61.0,FINESTEERING,2076,463122.800,00000000,4e14,14102;INS_SOLUTION_GOOD,INS_PSRSP,22.87972619095,113.86867583817,42.2757,-4.3000,-0.0000,0.0001,-0.0003,-0.033362867,-1.427180154,261.596447129,0.1022,0.0863,0.1565,0.0009,0.0011,0.0011,0.0051,0.0051,0.0818,00000044,0*be2497d3
#INSPVAXA,FILE,0,61.0,FINESTEERING,2076,463123.000,00000000,4e14,14102;INS_SOLUTION_GOOD,INS_PSRSP,22.87972619060,113.86867583785,42.2756,-4.3000,-0.0025,0.0006,0.0003,-0.033328586,-1.427977361,261.596956538,0.1022,0.0863,0.1565,0.0009,0.0011,0.0011,0.0051,0.0051,0.0818,00000044,0*b9a5ab59
#INSPVAXA,FILE,0,61.0,FINESTEERING,2076,463123.200,00000000,4e14,14102;INS_SOLUTION_GOOD,INS_PSRSP,22.87972619015,113.86867583756,42.2756,-4.3000,-0.0019,-0.0004,-0.0003,-0.032361678,-1.427391319,261.597036273,0.1022,0.0863,0.1565,0.0008,0.0010,0.0010,0.0051,0.0051,0.0818,00000044,0*8092e62c
#INSPVAXA,FILE,0,61.0,FINESTEERING,2076,463123.400,00000000,4e14,14102;INS_SOLUTION_GOOD,INS_PSRSP,22.87972618968,113.86867583727,42.2755,-4.3000,-0.0000,0.0005,-0.0007,-0.030224607,-1.426437615,261.597849455,0.1022,0.0863,0.1565,0.0008,0.0010,0.0010,0.0051,0.0051,0.0818,00000044,0*dc70fee5
#INSPVAXA,FILE,0,60.0,FINESTEERING,2076,463123.600,00000000,4e14,14102;INS_SOLUTION_GOOD,INS_PSRSP,22.87972618912,113.86867583702,42.2755,-4.3000,-0.0021,-0.0006,0.0000,-0.033349031,-1.428541648,261.596970230,0.1022,0.0863,0.1565,0.0008,0.0010,0.0010,0.0051,0.0051,0.0818,00000044,0*c64b7714
#INSPVAXA,FILE,0,60.0,FINESTEERING,2076,463123.800,00000000,4e14,14102;INS_SOLUTION_GOOD,INS_PSRSP,22.87972618852,113.86867583679,42.2755,-4.3000,-0.0013,0.0011,0.0008,-0.032700707,-1.427893850,261.597339455,0.1022,0.0863,0.1565,0.0008,0.0010,0.0010,0.0051,0.0051,0.0818,00000044,0*015953a5
#INSPVAXA,FILE,0,60.0,FINESTEERING,2076,463124.000,00000000,4e14,14102;INS_SOLUTION_GOOD,INS_PSRSP,22.87972618781,113.86867583663,42.2754,-4.3000,-0.0017,0.0008,0.0011,-0.033211055,-1.436331826,261.597408294,0.1022,0.0863,0.1565,0.0008,0.0010,0.0010,0.0051,0.0051,0.0818,00000044,0*a2bef6f2
#INSPVAXA,FILE,0,60.0,FINESTEERING,2076,463124.200,00000000,4e14,14102;INS_SOLUTION_GOOD,INS_PSRSP,22.87972618709,113.86867583648,42.2754,-4.3000,-0.0004,0.0000,-0.0012,-0.031729593,-1.429290794,261.599460442,0.1022,0.0864,0.1565,0.0008,0.0010,0.0010,0.0051,0.0051,0.0819,00000044,0*8e4d3f70
#INSPVAXA,FILE,0,60.0,FINESTEERING,2076,463124.400,00000000,4e14,14102;INS_SOLUTION_GOOD,INS_PSRSP,22.87972618630,113.86867583630,42.2753,-4.3000,-0.0014,0.0003,-0.0014,-0.035244023,-1.428560131,261.599746784,0.1022,0.0864,0.1565,0.0008,0.0010,0.0010,0.0051,0.0051,0.0819,00000044,0*ec299407
#INSPVAXA,FILE,0,60.0,FINESTEERING,2076,463124.600,00000000,4e14,14102;INS_SOLUTION_GOOD,INS_PSRSP,22.87972618551,113.86867583609,42.2753,-4.3000,-0.0022,-0.0005,-0.0009,-0.034027672,-1.430803765,261.598534685,0.1022,0.0864,0.1565,0.0008,0.0010,0.0010,0.0051,0.0051,0.0819,00000044,0*d447925a
#INSPVAXA,FILE,0,60.0,FINESTEERING,2076,463124.800,00000000,4e14,14102;INS_SOLUTION_GOOD,INS_PSRSP,22.87972618467,113.86867583586,42.2752,-4.3000,-0.0006,0.0001,-0.0004,-0.034987539,-1.429127379,261.599931435,0.1022,0.0864,0.1565,0.0008,0.0010,0.0010,0.0051,0.0051,0.0819,00000044,0*827d3bac
#INSPVAXA,FILE,0,60.0,FINESTEERING,2076,463125.000,00000000,4e14,14102;INS_SOLUTION_GOOD,INS_PSRSP,22.87972618380,113.86867583560,42.2751,-4.3000,-0.0032,-0.0015,-0.0001,-0.033642222,-1.432565453,261.597969288,0.1022,0.0864,0.1565,0.0008,0.0010,0.0010,0.0051,0.0051,0.0819,00000044,0*5aec2808
#INSPVAXA,FILE,0,60.0,FINESTEERING,2076,463125.200,00000000,4e14,14102;INS_SOLUTION_GOOD,INS_PSRSP,22.87972618296,113.86867583535,42.2750,-4.3000,0.0006,-0.0003,-0.0010,-0.031031467,-1.427811255,261.600023922,0.1022,0.0864,0.1565,0.0008,0.0010,0.0010,0.0050,0.0051,0.0819,00000044,0*69928802
#INSPVAXA,FILE,0,60.0,FINESTEERING,2076,463125.400,00000000,4e14,14102;INS_SOLUTION_GOOD,INS_PSRSP,22.87972618217,113.86867583510,42.2750,-4.3000,-0.0010,-0.0000,0.0000,-0.032469497,-1.427830588,261.599448907,0.1022,0.0864,0.1565,0.0008,0.0010,0.0010,0.0050,0.0051,0.0819,00000044,0*6b3e5d4c
#INSPVAXA,FILE,0,60.0,FINESTEERING,2076,463125.600,00000000,4e14,14102;INS_SOLUTION_GOOD,INS_PSRSP,22.87972618143,113.86867583486,42.2749,-4.3000,-0.0012,-0.0006,-0.0001,-0.031864894,-1.427767069,261.600513557,0.1022,0.0864,0.1565,0.0008,0.0010,0.0010,0.0050,0.0051,0.0819,00000044,0*685beb83
#INSPVAXA,FILE,0,61.0,FINESTEERING,2076,463125.800,00000000,4e14,14102;INS_SOLUTION_GOOD,INS_PSRSP,22.87972618072,113.86867583463,42.2748,-4.3000,-0.0002,-0.0001,-0.0003,-0.032319644,-1.428842531,261.600605943,0.1022,0.0864,0.1565,0.0008,0.0010,0.0010,0.0050,0.0051,0.0819,00000044,0*4d828791
#INSPVAXA,FILE,0,61.0,FINESTEERING,2076,463126.000,00000000,4e14,14102;INS_SOLUTION_GOOD,INS_PSRSP,22.87972618006,113.86867583440,42.2747,-4.3000,-0.0012,-0.0010,-0.0007,-0.033114548,-1.429862882,261.599865225,0.1022,0.0864,0.1565,0.0008,0.0010,0.0010,0.0050,0.0051,0.0819,00000044,0*cc4d1fc5
#INSPVAXA,FILE,0,61.0,FINESTEERING,2076,463126.200,00000000,4e14,14102;INS_SOLUTION_GOOD,INS_PSRSP,22.87972617943,113.86867583421,42.2747,-4.3000,0.0007,0.0010,-0.0005,-0.032776134,-1.427707644,261.601079459,0.1023,0.0864,0.1565,0.0008,0.0010,0.0010,0.0050,0.0050,0.0819,00000044,0*b84f6798
#INSPVAXA,FILE,0,61.0,FINESTEERING,2076,463126.400,00000000,4e14,14102;INS_SOLUTION_GOOD,INS_PSRSP,22.87972617886,113.86867583404,42.2746,-4.3000,-0.0015,-0.0002,0.0000,-0.032946334,-1.429450043,261.599782974,0.1023,0.0864,0.1565,0.0008,0.0010,0.0010,0.0050,0.0050,0.0819,00000044,0*5696511c
#INSPVAXA,FILE,0,61.0,FINESTEERING,2076,463126.600,00000000,4e14,14102;INS_SOLUTION_GOOD,INS_PSRSP,22.87972617834,113.86867583390,42.2745,-4.3000,0.0008,0.0004,-0.0002,-0.033025406,-1.426496593,261.600401403,0.1023,0.0864,0.1565,0.0008,0.0010,0.0010,0.0050,0.0050,0.0819,00000044,0*6180b445
#INSPVAXA,FILE,0,61.0,FINESTEERING,2076,463126.800,00000000,4e14,14102;INS_SOLUTION_GOOD,INS_PSRSP,22.87972617785,113.86867583379,42.2745,-4.3000,-0.0011,-0.0001,0.0002,-0.035059164,-1.431017297,261.600357536,0.1023,0.0864,0.1565,0.0008,0.0010,0.0010,0.0050,0.0050,0.0819,00000044,0*4e48b4b0
#INSPVAXA,FILE,0,61.0,FINESTEERING,2076,463127.000,00000000,4e14,14102;INS_SOLUTION_GOOD,INS_PSRSP,22.87972617740,113.86867583371,42.2744,-4.3000,-0.0005,0.0006,-0.0001,-0.034390957,-1.427895964,261.602198289,0.1023,0.0864,0.1565,0.0008,0.0010,0.0010,0.0050,0.0050,0.0819,00000044,0*d4c37bcd
#INSPVAXA,FILE,0,61.0,FINESTEERING,2076,463127.200,00000000,4e14,14102;INS_SOLUTION_GOOD,INS_PSRSP,22.87972617698,113.86867583366,42.2743,-4.3000,0.0007,0.0011,-0.0002,-0.033978680,-1.429434092,261.601997799,0.1023,0.0864,0.1565,0.0008,0.0010,0.0010,0.0050,0.0050,0.0819,00000044,0*49e22567
#INSPVAXA,FILE,0,61.0,FINESTEERING,2076,463127.400,00000000,4e14,14102;INS_SOLUTION_GOOD,INS_PSRSP,22.87972617661,113.86867583362,42.2743,-4.3000,-0.0009,-0.0004,-0.0002,-0.032203252,-1.431482369,261.600645558,0.1023,0.0864,0.1565,0.0008,0.0010,0.0010,0.0050,0.0050,0.0819,00000044,0*7d8889b5
#INSPVAXA,FILE,0,61.0,FINESTEERING,2076,463127.600,00000000,4e14,14102;INS_SOLUTION_GOOD,INS_PSRSP,22.87972617626,113.86867583359,42.2742,-4.3000,0.0018,0.0007,-0.0004,-0.031355317,-1.427971747,261.601958142,0.1023,0.0864,0.1565,0.0008,0.0010,0.0010,0.0050,0.0050,0.0819,00000044,0*04c1e0d7
#INSPVAXA,FILE,0,61.0,FINESTEERING,2076,463127.800,00000000,4e14,14102;INS_SOLUTION_GOOD,INS_PSRSP,22.87972617594,113.86867583359,42.2742,-4.3000,-0.0005,0.0008,0.0004,-0.031864812,-1.429825229,261.600911962,0.1023,0.0864,0.1565,0.0008,0.0010,0.0010,0.0050,0.0050,0.0819,00000044,0*16748994
#INSPVAXA,FILE,0,61.0,FINESTEERING,2076,463128.000,00000000,4e14,14102;INS_SOLUTION_GOOD,INS_PSRSP,22.87972617566,113.86867583362,42.2741,-4.3000,0.0002,0.0010,-0.0004,-0.032364829,-1.427788282,261.600613308,0.1023,0.0864,0.1565,0.0008,0.0010,0.0010,0.0050,0.0050,0.0819,00000044,0*ed47eede
#INSPVAXA,FILE,0,61.0,FINESTEERING,2076,463128.200,00000000,4e14,14102;INS_SOLUTION_GOOD,INS_PSRSP,22.87972617540,113.86867583365,42.2741,-4.3000,0.0008,0.0003,-0.0002,-0.030541344,-1.430414899,261.601066701,0.1023,0.0864,0.1565,0.0007,0.0010,0.0010,0.0050,0.0050,0.0820,00000044,0*123cb959
#INSPVAXA,FILE,0,61.0,FINESTEERING,2076,463128.400,00000000,4e14,14102;INS_SOLUTION_GOOD,INS_PSRSP,22.87972617518,113.86867583369,42.2740,-4.3000,0.0002,-0.0005,-0.0000,-0.028708947,-1.428907120,261.599629108,0.1023,0.0864,0.1565,0.0007,0.0010,0.0010,0.0050,0.0050,0.0820,00000044,0*2e8ef98f
#INSPVAXA,FILE,0,61.0,FINESTEERING,2076,463128.600,00000000,4e14,14102;INS_SOLUTION_GOOD,INS_PSRSP,22.87972617499,113.86867583372,42.2740,-4.3000,0.0017,0.0009,0.0001,-0.028773419,-1.427147052,261.600775993,0.1023,0.0864,0.1565,0.0007,0.0010,0.0010,0.0050,0.0050,0.0820,00000044,0*9279b6e2
#INSPVAXA,FILE,0,61.0,FINESTEERING,2076,463128.800,00000000,4e14,14102;INS_SOLUTION_GOOD,INS_PSRSP,22.87972617485,113.86867583377,42.2739,-4.3000,-0.0011,-0.0004,0.0004,-0.028685968,-1.430668602,261.599174885,0.1023,0.0864,0.1565,0.0007,0.0010,0.0010,0.0050,0.0050,0.0820,00000044,0*98b48c8c
#INSPVAXA,FILE,0,61.5,FINESTEERING,2076,463129.000,00000000,4e14,14102;INS_SOLUTION_GOOD,INS_PSRSP,22.87972617475,113.86867583381,42.2739,-4.3000,0.0013,0.0003,0.0021,-0.026401289,-1.433661721,261.598545581,0.1023,0.0864,0.1565,0.0007,0.0010,0.0010,0.0050,0.0050,0.0820,00000044,0*626e8588
#INSPVAXA,FILE,0,61.5,FINESTEERING,2076,463129.200,00000000,4e14,14102;INS_SOLUTION_GOOD,INS_PSRSP,22.87972617468,113.86867583387,42.2739,-4.3000,0.0004,0.0003,-0.0019,-0.027733453,-1.436057669,261.599152153,0.1023,0.0864,0.1566,0.0007,0.0010,0.0010,0.0050,0.0050,0.0820,00000044,0*7107c5ad
#INSPVAXA,FILE,0,61.5,FINESTEERING,2076,463129.400,00000000,4e14,14102;INS_SOLUTION_GOOD,INS_PSRSP,22.87972617463,113.86867583393,42.2738,-4.3000,-0.0001,-0.0003,0.0004,-0.026916961,-1.436217096,261.598410764,0.1023,0.0864,0.1566,0.0007,0.0010,0.0010,0.0050,0.0050,0.0820,00000044,0*5bd8ed6f
#INSPVAXA,FILE,0,61.5,FINESTEERING,2076,463129.600,00000000,4e14,14102;INS_SOLUTION_GOOD,INS_PSRSP,22.87972617459,113.86867583399,42.2738,-4.3000,0.0003,0.0005,-0.0008,-0.027981144,-1.436847974,261.598447196,0.1023,0.0864,0.1566,0.0007,0.0010,0.0010,0.0050,0.0050,0.0820,00000044,0*c4a9b27e
#INSPVAXA,FILE,0,59.5,FINESTEERING,2076,463129.800,00000000,4e14,14102;INS_SOLUTION_GOOD,INS_PSRSP,22.87972617459,113.86867583404,42.2738,-4.3000,-0.0004,-0.0005,-0.0002,-0.026812631,-1.435978837,261.596927298,0.1023,0.0864,0.1566,0.0007,0.0010,0.0010,0.0050,0.0050,0.0820,00000044,0*f90d1da9
#INSPVAXA,FILE,0,59.5,FINESTEERING,2076,463130.000,00000000,4e14,14102;INS_SOLUTION_GOOD,INS_PSRSP,22.87972617461,113.86867583411,42.2737,-4.3000,0.0016,0.0002,-0.0009,-0.028589354,-1.430940768,261.597656338,0.1023,0.0864,0.1566,0.0007,0.0010,0.0010,0.0050,0.0050,0.0820,00000044,0*0795c7d0
#INSPVAXA,FILE,0,59.5,FINESTEERING,2076,463130.200,00000000,4e14,14102;INS_SOLUTION_GOOD,INS_PSRSP,22.87972617463,113.86867583418,42.2737,-4.3000,-0.0006,0.0003,-0.0002,-0.030119891,-1.431912699,261.598232308,0.1023,0.0864,0.1566,0.0007,0.0010,0.0010,0.0050,0.0050,0.0820,00000044,0*1d973dca
#INSPVAXA,FILE,0,59.5,FINESTEERING,2076,463130.400,00000000,4e14,14102;INS_SOLUTION_GOOD,INS_PSRSP,22.87972617464,113.86867583425,42.2736,-4.3000,0.0001,0.0012,-0.0002,-0.030428461,-1.431987916,261.598046499,0.1023,0.0864,0.1566,0.0007,0.0010,0.0010,0.0050,0.0050,0.0820,00000044,0*ffce310f
#INSPVAXA,FILE,0,59.5,FINESTEERING,2076,463130.600,00000000,4e14,14102;INS_SOLUTION_GOOD,INS_PSRSP,22.87972617465,113.86867583434,42.2736,-4.3000,0.0008,0.0013,-0.0001,-0.028276917,-1.431785784,261.597193317,0.1023,0.0864,0.1566,0.0007,0.0010,0.0010,0.0050,0.0050,0.0820,00000044,0*259aacfe
#INSPVAXA,FILE,0,59.5,FINESTEERING,2076,463130.800,00000000,4e14,14102;INS_SOLUTION_GOOD,INS_PSRSP,22.87972617467,113.86867583444,42.2736,-4.3000,-0.0002,0.0002,0.0005,-0.029298266,-1.432500113,261.596590933,0.1023,0.0864,0.1566,0.0007,0.0010,0.0010,0.0050,0.0050,0.0820,00000044,0*80789181
#INSPVAXA,FILE,0,61.0,FINESTEERING,2076,463131.000,00000000,4e14,14102;INS_SOLUTION_GOOD,INS_PSRSP,22.87972617468,113.86867583457,42.2735,-4.3000,0.0015,0.0018,-0.0005,-0.031914291,-1.428323793,261.597597748,0.1023,0.0864,0.1566,0.0007,0.0010,0.0010,0.0050,0.0050,0.0820,00000044,0*bb52e74e
#INSPVAXA,FILE,0,61.0,FINESTEERING,2076,463131.200,00000000,4e14,14102;INS_SOLUTION_GOOD,INS_PSRSP,22.87972617467,113.86867583469,42.2735,-4.3000,-0.0021,-0.0001,0.0001,-0.034083050,-1.434043861,261.596307837,0.1023,0.0864,0.1566,0.0007,0.0010,0.0010,0.0050,0.0050,0.0821,00000044,0*171670be
#INSPVAXA,FILE,0,61.0,FINESTEERING,2076,463131.400,00000000,4e14,14102;INS_SOLUTION_GOOD,INS_PSRSP,22.87972617463,113.86867583482,42.2735,-4.3000,-0.0006,0.0013,0.0037,-0.033353363,-1.441787217,261.596765036,0.1023,0.0864,0.1566,0.0007,0.0010,0.0010,0.0050,0.0050,0.0821,00000044,0*8bad5f63
#INSPVAXA,FILE,0,61.0,FINESTEERING,2076,463131.600,00000000,4e14,14102;INS_SOLUTION_GOOD,INS_PSRSP,22.87972617458,113.86867583498,42.2735,-4.3000,0.0002,0.0014,0.0039,-0.031284059,-1.464397880,261.595897488,0.1023,0.0864,0.1566,0.0007,0.0010,0.0010,0.0050,0.0050,0.0821,00000044,0*1b6047df
#INSPVAXA,FILE,0,60.0,FINESTEERING,2076,463131.800,00000000,4e14,14102;INS_SOLUTION_GOOD,INS_PSRSP,22.87972617451,113.86867583515,42.2735,-4.3000,0.0000,0.0007,0.0063,-0.030055425,-1.478699130,261.596413503,0.1023,0.0864,0.1566,0.0007,0.0010,0.0010,0.0050,0.0050,0.0821,00000044,0*ec450d2d
#INSPVAXA,FILE,0,60.0,FINESTEERING,2076,463132.000,00000000,4e14,14102;INS_SOLUTION_GOOD,INS_PSRSP,22.87972617443,113.86867583539,42.2735,-4.3000,-0.0001,0.0027,-0.0013,-0.029343217,-1.489888132,261.596482644,0.1023,0.0864,0.1566,0.0007,0.0010,0.0010,0.0050,0.0050,0.0821,00000044,0*caa2e1fd
#INSPVAXA,FILE,0,60.0,FINESTEERING,2076,463132.200,00000000,4e14,14102;INS_SOLUTION_GOOD,INS_PSRSP,22.87972616978,113.86867584640,42.2745,-4.3000,-0.0017,0.0002,0.0006,-0.027797065,-1.493778704,261.595285337,0.1019,0.0861,0.1561,0.0009,0.0013,0.0013,0.0052,0.0052,0.0821,00000044,0*22c2a820
#INSPVAXA,FILE,0,60.0,FINESTEERING,2076,463132.400,00000000,4e14,14102;INS_SOLUTION_GOOD,INS_PSRSP,22.87972616957,113.86867584766,42.2740,-4.3000,0.0011,-0.0005,-0.0050,-0.028613491,-1.473068909,261.597534099,0.1019,0.0861,0.1561,0.0009,0.0013,0.0013,0.0052,0.0052,0.0821,00000044,0*474eb53f
#INSPVAXA,FILE,0,60.0,FINESTEERING,2076,463132.600,00000000,4e14,14102;INS_SOLUTION_GOOD,INS_PSRSP,22.87972616901,113.86867584375,42.2732,-4.3000,-0.0030,0.0013,-0.0051,-0.027473429,-1.454221375,261.597200914,0.1019,0.0861,0.1561,0.0009,0.0013,0.0013,0.0052,0.0052,0.0821,00000044,0*d9ee30e2
#INSPVAXA,FILE,0,60.0,FINESTEERING,2076,463132.800,00000000,4e14,14102;INS_SOLUTION_GOOD,INS_PSRSP,22.87972616879,113.86867584469,42.2731,-4.3000,0.0007,0.0004,0.0015,-0.029565656,-1.446906128,261.596150233,0.1019,0.0861,0.1561,0.0009,0.0013,0.0013,0.0052,0.0052,0.0821,00000044,0*3f2b5856
#INSPVAXA,FILE,0,61.5,FINESTEERING,2076,463133.000,00000000,4e14,14102;INS_SOLUTION_GOOD,INS_PSRSP,22.87972616901,113.86867584527,42.2732,-4.3000,-0.0013,0.0025,-0.0008,-0.026566672,-1.446813977,261.598020564,0.1019,0.0861,0.1561,0.0009,0.0013,0.0013,0.0052,0.0052,0.0821,00000044,0*b3a8f4e1
#INSPVAXA,FILE,0,61.5,FINESTEERING,2076,463133.200,00000000,4e14,14102;INS_SOLUTION_GOOD,INS_PSRSP,22.87972617060,113.86867584405,42.2736,-4.3000,-0.0005,-0.0000,-0.0011,-0.028864714,-1.445374613,261.598418286,0.1016,0.0858,0.1557,0.0010,0.0017,0.0016,0.0054,0.0054,0.0821,000000c3,0*5f97b0cd
#INSPVAXA,FILE,0,61.5,FINESTEERING,2076,463133.400,00000000,4e14,14102;INS_SOLUTION_GOOD,INS_PSRSP,22.87972617375,113.86867584345,42.2741,-4.3000,0.0004,0.0021,0.0001,-0.028050588,-1.440698166,261.598840969,0.1016,0.0858,0.1557,0.0010,0.0017,0.0016,0.0054,0.0054,0.0821,000000c3,0*7ad958c0
#INSPVAXA,FILE,0,61.5,FINESTEERING,2076,463133.600,00000000,4e14,14102;INS_SOLUTION_GOOD,INS_PSRSP,22.87972617564,113.86867584221,42.2746,-4.3000,-0.0003,0.0011,0.0009,-0.030442555,-1.444079257,261.598656770,0.1016,0.0858,0.1557,0.0010,0.0017,0.0016,0.0054,0.0054,0.0821,000000c3,0*f8262121
#INSPVAXA,FILE,0,60.0,FINESTEERING,2076,463133.800,00000000,4e14,14102;INS_SOLUTION_GOOD,INS_PSRSP,22.87972617924,113.86867584237,42.2751,-4.3000,0.0004,0.0024,0.0004,-0.027007662,-1.440959287,261.598691205,0.1016,0.0858,0.1557,0.0010,0.0017,0.0016,0.0054,0.0054,0.0821,000000c3,0*db4d7a98
#INSPVAXA,FILE,0,60.0,FINESTEERING,2076,463134.000,00000000,4e14,14102;INS_SOLUTION_GOOD,INS_PSRSP,22.87972618214,113.86867584215,42.2756,-4.3000,-0.0007,0.0010,0.0004,-0.030439151,-1.445009217,261.596757003,0.1016,0.0858,0.1557,0.0010,0.0017,0.0016,0.0054,0.0054,0.0821,000000c3,0*79b5f3ca
#INSPVAXA,FILE,0,60.0,FINESTEERING,2076,463134.200,00000000,4e14,14102;INS_SOLUTION_GOOD,INS_PSRSP,22.87972618775,113.86867584003,42.2764,-4.3000,0.0015,0.0027,-0.0003,-0.029730864,-1.439150646,261.598392453,0.1013,0.0855,0.1552,0.0012,0.0021,0.0020,0.0055,0.0056,0.0821,000000c3,0*477da4be
#INSPVAXA,FILE,0,60.0,FINESTEERING,2076,463134.400,00000000,4e14,14102;INS_SOLUTION_GOOD,INS_PSRSP,22.87972619356,113.86867583737,42.2774,-4.3000,0.0004,0.0040,0.0001,-0.031057322,-1.441144060,261.597818864,0.1013,0.0855,0.1552,0.0012,0.0021,0.0020,0.0055,0.0056,0.0821,000000c3,0*d9101c30
#INSPVAXA,FILE,0,60.0,FINESTEERING,2076,463134.600,00000000,4e14,14102;INS_SOLUTION_GOOD,INS_PSRSP,22.87972620004,113.86867583535,42.2783,-4.3000,-0.0005,0.0031,0.0002,-0.030460212,-1.438996736,261.596937336,0.1013,0.0855,0.1552,0.0012,0.0021,0.0020,0.0055,0.0056,0.0821,000000c3,0*a0b7371c
#INSPVAXA,FILE,0,60.0,FINESTEERING,2076,463134.800,00000000,4e14,14102;INS_SOLUTION_GOOD,INS_PSRSP,22.87972620619,113.86867583434,42.2792,-4.3000,0.0028,0.0040,0.0000,-0.029954799,-1.438681831,261.598612960,0.1013,0.0855,0.1552,0.0012,0.0021,0.0020,0.0055,0.0056,0.0821,000000c3,0*6f2b3c3d
#INSPVAXA,FILE,0,60.5,FINESTEERING,2076,463135.000,00000000,4e14,14102;INS_SOLUTION_GOOD,INS_PSRSP,22.87972621270,113.86867583336,42.2802,-4.3000,-0.0004,0.0033,0.0004,-0.030893318,-1.439924000,261.598038165,0.1013,0.0855,0.1552,0.0012,0.0021,0.0020,0.0055,0.0056,0.0821,000000c3,0*07170ba0
#INSPVAXA,FILE,0,60.5,FINESTEERING,2076,463135.200,00000000,4e14,14102;INS_SOLUTION_GOOD,INS_PSRSP,22.87972621581,113.86867583064,42.2805,-4.3000,0.0023,0.0023,-0.0002,-0.028915403,-1.439528349,261.597950790,0.1013,0.0855,0.1552,0.0009,0.0013,0.0012,0.0050,0.0050,0.0822,000000c3,0*7def956f
#INSPVAXA,FILE,0,60.5,FINESTEERING,2076,463135.400,00000000,4e14,14102;INS_SOLUTION_GOOD,INS_PSRSP,22.87972621742,113.86867582890,42.2806,-4.3000,-0.0011,0.0017,0.0002,-0.029930823,-1.444161161,261.598240065,0.1013,0.0855,0.1552,0.0009,0.0013,0.0012,0.0050,0.0050,0.0822,000000c3,0*7e48308a
#INSPVAXA,FILE,0,60.5,FINESTEERING,2076,463135.600,00000000,4e14,14102;INS_SOLUTION_GOOD,INS_PSRSP,22.87972621911,113.86867582733,42.2807,-4.3000,0.0015,0.0014,-0.0005,-0.028187240,-1.440901999,261.598190829,0.1013,0.0855,0.1552,0.0009,0.0013,0.0012,0.0050,0.0050,0.0822,000000c3,0*b55606ce
#INSPVAXA,FILE,0,59.5,FINESTEERING,2076,463135.800,00000000,4e14,14102;INS_SOLUTION_GOOD,INS_PSRSP,22.87972622080,113.86867582587,42.2808,-4.3000,0.0022,0.0022,-0.0004,-0.027845506,-1.441839474,261.598644468,0.1013,0.0855,0.1552,0.0009,0.0013,0.0012,0.0050,0.0050,0.0822,000000c3,0*4fbab668
#INSPVAXA,FILE,0,59.5,FINESTEERING,2076,463136.000,00000000,4e14,14102;INS_SOLUTION_GOOD,INS_PSRSP,22.87972622252,113.86867582454,42.2810,-4.3000,-0.0003,0.0013,0.0002,-0.028386285,-1.444527713,261.597737232,0.1013,0.0855,0.1552,0.0009,0.0013,0.0012,0.0050,0.0050,0.0822,000000c3,0*6783d2bd
#INSPVAXA,FILE,0,59.5,FINESTEERING,2076,463136.200,00000000,4e14,14102;INS_SOLUTION_GOOD,INS_PSRSP,22.87972622411,113.86867582337,42.2811,-4.3000,0.0015,0.0018,-0.0002,-0.028575172,-1.443362144,261.597908846,0.1013,0.0855,0.1552,0.0008,0.0011,0.0011,0.0050,0.0050,0.0822,00000044,0*75dbeb2d
#INSPVAXA,FILE,0,59.5,FINESTEERING,2076,463136.400,00000000,4e14,14102;INS_SOLUTION_GOOD,INS_PSRSP,22.87972622559,113.86867582233,42.2812,-4.3000,0.0006,0.0009,-0.0003,-0.028192598,-1.446439060,261.596723238,0.1013,0.0855,0.1552,0.0008,0.0011,0.0011,0.0050,0.0050,0.0822,00000044,0*dcf9f92e
#INSPVAXA,FILE,0,59.5,FINESTEERING,2076,463136.600,00000000,4e14,14102;INS_SOLUTION_GOOD,INS_PSRSP,22.87972622702,113.86867582142,42.2812,-4.3000,0.0022,0.0008,-0.0007,-0.027300250,-1.442374631,261.597368330,0.1013,0.0855,0.1552,0.0008,0.0011,0.0011,0.0050,0.0050,0.0822,00000044,0*f561fd7a
#INSPVAXA,FILE,0,59.5,FINESTEERING,2076,463136.800,00000000,4e14,14102;INS_SOLUTION_GOOD,INS_PSRSP,22.87972622841,113.86867582061,42.2813,-4.3000,0.0015,0.0016,0.0001,-0.028399546,-1.445561197,261.598767560,0.1013,0.0855,0.1552,0.0008,0.0011,0.0011,0.0050,0.0050,0.0822,00000044,0*862be3e7
#INSPVAXA,FILE,0,60.5,FINESTEERING,2076,463137.000,00000000,4e14,14102;INS_SOLUTION_GOOD,INS_PSRSP,22.87972622982,113.86867581990,42.2814,-4.3000,-0.0004,0.0011,0.0000,-0.029072492,-1.447554702,261.597609718,0.1013,0.0855,0.1552,0.0008,0.0011,0.0011,0.0050,0.0050,0.0822,00000044,0*afd7a000
#INSPVAXA,FILE,0,60.5,FINESTEERING,2076,463137.200,00000000,4e14,14102;INS_SOLUTION_GOOD,INS_PSRSP,22.87972623124,113.86867581927,42.2814,-4.3000,0.0026,0.0013,-0.0005,-0.026733231,-1.444886965,261.598888340,0.1013,0.0855,0.1552,0.0008,0.0010,0.0010,0.0050,0.0050,0.0822,00000044,0*aae7d22a
#INSPVAXA,FILE,0,60.5,FINESTEERING,2076,463137.400,00000000,4e14,14102;INS_SOLUTION_GOOD,INS_PSRSP,22.87972623268,113.86867581872,42.2815,-4.3000,0.0003,-0.0006,-0.0001,-0.028829733,-1.447352494,261.599092468,0.1013,0.0855,0.1552,0.0008,0.0010,0.0010,0.0050,0.0050,0.0822,00000044,0*29d08c76
#INSPVAXA,FILE,0,60.5,FINESTEERING,2076,463137.600,00000000,4e14,14102;INS_SOLUTION_GOOD,INS_PSRSP,22.87972623415,113.86867581822,42.2815,-4.3000,0.0023,0.0016,-0.0005,-0.030140203,-1.445260602,261.600099815,0.1013,0.0855,0.1552,0.0008,0.0010,0.0010,0.0050,0.0050,0.0822,00000044,0*b9943594
#INSPVAXA,FILE,0,60.5,FINESTEERING,2076,463137.800,00000000,4e14,14102;INS_SOLUTION_GOOD,INS_PSRSP,22.87972623565,113.86867581777,42.2816,-4.3000,0.0005,0.0014,-0.0000,-0.031413293,-1.448448749,261.600721187,0.1013,0.0855,0.1552,0.0008,0.0010,0.0010,0.0050,0.0050,0.0822,00000044,0*bede04bb
#INSPVAXA,FILE,0,60.5,FINESTEERING,2076,463138.000,00000000,4e14,14102;INS_SOLUTION_GOOD,INS_PSRSP,22.87972623719,113.86867581738,42.2816,-4.3000,0.0016,0.0012,-0.0006,-0.028806063,-1.445912077,261.599422033,0.1013,0.0855,0.1552,0.0008,0.0010,0.0010,0.0050,0.0050,0.0822,00000044,0*348383a9
#INSPVAXA,FILE,0,60.5,FINESTEERING,2076,463138.200,00000000,4e14,14102;INS_SOLUTION_GOOD,INS_PSRSP,22.87972623868,113.86867581701,42.2816,-4.3000,0.0023,0.0011,-0.0004,-0.031356596,-1.446741344,261.599754842,0.1013,0.0856,0.1552,0.0008,0.0010,0.0010,0.0050,0.0050,0.0822,00000044,0*be4fd911
#INSPVAXA,FILE,0,60.5,FINESTEERING,2076,463138.400,00000000,4e14,14102;INS_SOLUTION_GOOD,INS_PSRSP,22.87972624012,113.86867581667,42.2816,-4.3000,-0.0004,0.0003,0.0001,-0.032141184,-1.447039938,261.597512175,0.1013,0.0856,0.1552,0.0008,0.0010,0.0010,0.0050,0.0050,0.0822,00000044,0*ff0b11cc
#INSPVAXA,FILE,0,60.5,FINESTEERING,2076,463138.600,00000000,4e14,14102;INS_SOLUTION_GOOD,INS_PSRSP,22.87972624151,113.86867581637,42.2817,-4.3000,0.0025,0.0027,-0.0008,-0.031647824,-1.445198017,261.598547321,0.1013,0.0856,0.1552,0.0008,0.0010,0.0010,0.0050,0.0050,0.0822,00000044,0*88ce67c8
#INSPVAXA,FILE,0,60.5,FINESTEERING,2076,463138.800,00000000,4e14,14102;INS_SOLUTION_GOOD,INS_PSRSP,22.87972624287,113.86867581610,42.2817,-4.3000,0.0008,0.0015,-0.0003,-0.031081603,-1.447330333,261.597805670,0.1013,0.0856,0.1552,0.0008,0.0010,0.0010,0.0050,0.0050,0.0822,00000044,0*b39a9295
#INSPVAXA,FILE,0,61.0,FINESTEERING,2076,463139.000,00000000,4e14,14102;INS_SOLUTION_GOOD,INS_PSRSP,22.87972624421,113.86867581586,42.2817,-4.3000,0.0021,0.0009,-0.0008,-0.030296982,-1.445154977,261.597200987,0.1013,0.0856,0.1552,0.0008,0.0010,0.0010,0.0050,0.0050,0.0822,00000044,0*b1b7da83
#INSPVAXA,FILE,0,61.0,FINESTEERING,2076,463139.200,00000000,4e14,14102;INS_SOLUTION_GOOD,INS_PSRSP,22.87972624546,113.86867581564,42.2817,-4.3000,0.0010,0.0011,-0.0005,-0.031790247,-1.446713526,261.599413639,0.1013,0.0856,0.1553,0.0008,0.0010,0.0010,0.0050,0.0050,0.0823,00000044,0*690592aa
#INSPVAXA,FILE,0,61.0,FINESTEERING,2076,463139.400,00000000,4e14,14102;INS_SOLUTION_GOOD,INS_PSRSP,22.87972624662,113.86867581543,42.2817,-4.3000,-0.0008,0.0005,-0.0002,-0.031667731,-1.449347331,261.597533110,0.1013,0.0856,0.1553,0.0008,0.0010,0.0010,0.0050,0.0050,0.0823,00000044,0*4a229c46
#INSPVAXA,FILE,0,61.0,FINESTEERING,2076,463139.600,00000000,4e14,14102;INS_SOLUTION_GOOD,INS_PSRSP,22.87972624770,113.86867581522,42.2817,-4.3000,0.0013,0.0011,-0.0007,-0.030134304,-1.447560897,261.599151777,0.1013,0.0856,0.1553,0.0008,0.0010,0.0010,0.0050,0.0050,0.0823,00000044,0*1c6ef518
#INSPVAXA,FILE,0,60.5,FINESTEERING,2076,463139.800,00000000,4e14,14102;INS_SOLUTION_GOOD,INS_PSRSP,22.87972624870,113.86867581501,42.2817,-4.3000,-0.0006,-0.0005,-0.0002,-0.031242397,-1.450220684,261.598717440,0.1013,0.0856,0.1553,0.0008,0.0010,0.0010,0.0050,0.0050,0.0823,00000044,0*9da47295
#INSPVAXA,FILE,0,60.5,FINESTEERING,2076,463140.000,00000000,4e14,14102;INS_SOLUTION_GOOD,INS_PSRSP,22.87972624964,113.86867581481,42.2818,-4.3000,0.0012,0.0008,-0.0006,-0.030904953,-1.446211443,261.599334828,0.1013,0.0856,0.1553,0.0008,0.0010,0.0010,0.0050,0.0050,0.0823,00000044,0*5450b597
#INSPVAXA,FILE,0,60.5,FINESTEERING,2076,463140.200,00000000,4e14,14102;INS_SOLUTION_GOOD,INS_PSRSP,22.87972625048,113.86867581459,42.2818,-4.3000,-0.0023,-0.0002,0.0005,-0.033097222,-1.452366243,261.598825263,0.1013,0.0856,0.1553,0.0008,0.0010,0.0010,0.0050,0.0050,0.0823,00000044,0*f0cde246
#INSPVAXA,FILE,0,60.5,FINESTEERING,2076,463140.400,00000000,4e14,14102;INS_SOLUTION_GOOD,INS_PSRSP,22.87972625124,113.86867581438,42.2818,-4.3000,-0.0006,-0.0004,-0.0002,-0.030958598,-1.448497461,261.596301759,0.1013,0.0856,0.1553,0.0008,0.0010,0.0010,0.0050,0.0050,0.0823,00000044,0*da560281
#INSPVAXA,FILE,0,60.5,FINESTEERING,2076,463140.600,00000000,4e14,14102;INS_SOLUTION_GOOD,INS_PSRSP,22.87972625192,113.86867581415,42.2818,-4.3000,-0.0005,-0.0003,-0.0001,-0.031447400,-1.448462573,261.595531612,0.1013,0.0856,0.1553,0.0008,0.0010,0.0010,0.0050,0.0050,0.0823,00000044,0*3baa88c3
#INSPVAXA,FILE,0,60.5,FINESTEERING,2076,463140.800,00000000,4e14,14102;INS_SOLUTION_GOOD,INS_PSRSP,22.87972625252,113.86867581392,42.2818,-4.3000,-0.0012,-0.0007,0.0001,-0.032176998,-1.448344567,261.594428372,0.1013,0.0856,0.1553,0.0008,0.0010,0.0010,0.0050,0.0050,0.0823,00000044,0*6aa2de14
#INSPVAXA,FILE,0,61.0,FINESTEERING,2076,463141.000,00000000,4e14,14102;INS_SOLUTION_GOOD,INS_PSRSP,22.87972625305,113.86867581367,42.2818,-4.3000,-0.0000,0.0009,-0.0001,-0.032623606,-1.447503175,261.595297326,0.1013,0.0856,0.1553,0.0008,0.0010,0.0010,0.0050,0.0050,0.0823,00000044,0*848fc055
#INSPVAXA,FILE,0,61.0,FINESTEERING,2076,463141.200,00000000,4e14,14102;INS_SOLUTION_GOOD,INS_PSRSP,22.87972625352,113.86867581338,42.2818,-4.3000,-0.0012,-0.0012,-0.0004,-0.032442638,-1.445454026,261.595276273,0.1014,0.0856,0.1553,0.0007,0.0010,0.0010,0.0050,0.0050,0.0823,00000044,0*3daba086
#INSPVAXA,FILE,0,61.0,FINESTEERING,2076,463141.400,00000000,4e14,14102;INS_SOLUTION_GOOD,INS_PSRSP,22.87972625393,113.86867581308,42.2819,-4.3000,-0.0006,0.0021,0.0136,-0.031316350,-1.477984191,261.596524582,0.1014,0.0856,0.1553,0.0007,0.0010,0.0010,0.0050,0.0050,0.0823,00000044,0*776cd3ce
#INSPVAXA,FILE,0,61.0,FINESTEERING,2076,463141.600,00000000,4e14,14102;INS_SOLUTION_GOOD,INS_PSRSP,22.87972625431,113.86867581292,42.2820,-4.3000,-0.0002,-0.0001,-0.0018,-0.030902653,-1.504207671,261.596352457,0.1014,0.0856,0.1553,0.0007,0.0010,0.0010,0.0050,0.0050,0.0823,00000044,0*0740d7e7
#INSPVAXA,FILE,0,59.0,FINESTEERING,2076,463141.800,00000000,4e14,14102;INS_SOLUTION_GOOD,INS_PSRSP,22.87972625462,113.86867581265,42.2820,-4.3000,-0.0009,0.0004,0.0004,-0.031619519,-1.502977840,261.596915481,0.1014,0.0856,0.1553,0.0007,0.0010,0.0010,0.0050,0.0050,0.0823,00000044,0*075559a3
#INSPVAXA,FILE,0,59.0,FINESTEERING,2076,463142.000,00000000,4e14,14102;INS_SOLUTION_GOOD,INS_PSRSP,22.87972625488,113.86867581241,42.2821,-4.3000,-0.0005,-0.0012,0.0007,-0.030258903,-1.499803353,261.596616297,0.1014,0.0856,0.1553,0.0007,0.0010,0.0010,0.0050,0.0050,0.0823,00000044,0*2d061ad8
#INSPVAXA,FILE,0,59.0,FINESTEERING,2076,463142.200,00000000,4e14,14102;INS_SOLUTION_GOOD,INS_PSRSP,22.87972626301,113.86867579854,42.2851,-4.3000,-0.0009,0.0005,-0.0005,-0.028989535,-1.501986989,261.595182379,0.1010,0.0853,0.1548,0.0009,0.0014,0.0013,0.0052,0.0052,0.0824,00000044,0*762d21ed
#INSPVAXA,FILE,0,59.0,FINESTEERING,2076,463142.400,00000000,4e14,14102;INS_SOLUTION_GOOD,INS_PSRSP,22.87972626249,113.86867579476,42.2854,-4.3000,0.0009,-0.0014,0.0005,-0.030464407,-1.502116771,261.598191705,0.1010,0.0853,0.1548,0.0009,0.0014,0.0013,0.0052,0.0052,0.0824,00000044,0*989fc60d
#INSPVAXA,FILE,0,59.0,FINESTEERING,2076,463142.600,00000000,4e14,14102;INS_SOLUTION_GOOD,INS_PSRSP,22.87972626195,113.86867579016,42.2857,-4.3000,-0.0028,0.0005,-0.0000,-0.031338119,-1.504472540,261.596256204,0.1010,0.0853,0.1548,0.0009,0.0014,0.0013,0.0052,0.0052,0.0824,00000044,0*672501d9
#INSPVAXA,FILE,0,59.0,FINESTEERING,2076,463142.800,00000000,4e14,14102;INS_SOLUTION_GOOD,INS_PSRSP,22.87972626149,113.86867578462,42.2861,-4.3000,0.0009,-0.0013,0.0002,-0.028898412,-1.503326160,261.596124836,0.1010,0.0853,0.1548,0.0009,0.0014,0.0013,0.0052,0.0052,0.0824,00000044,0*b8a41a86
#INSPVAXA,FILE,0,61.0,FINESTEERING,2076,463143.000,00000000,4e14,14102;INS_SOLUTION_GOOD,INS_PSRSP,22.87972626036,113.86867578078,42.2864,-4.3000,-0.0018,-0.0012,0.0004,-0.031919026,-1.505485654,261.596634623,0.1010,0.0853,0.1548,0.0009,0.0014,0.0013,0.0052,0.0052,0.0824,00000044,0*c3cef2b3
#INSPVAXA,FILE,0,61.0,FINESTEERING,2076,463143.200,00000000,4e14,14102;INS_SOLUTION_GOOD,INS_PSRSP,22.87972626087,113.86867577308,42.2870,-4.3000,-0.0003,-0.0003,0.0000,-0.030104537,-1.504096691,261.596269207,0.1007,0.0850,0.1544,0.0010,0.0018,0.0016,0.0054,0.0054,0.0824,000000c3,0*4b149066
#INSPVAXA,FILE,0,61.0,FINESTEERING,2076,463143.400,00000000,4e14,14102;INS_SOLUTION_GOOD,INS_PSRSP,22.87972626102,113.86867576722,42.2875,-4.3000,-0.0017,-0.0004,0.0004,-0.029993630,-1.503227261,261.597027062,0.1007,0.0850,0.1544,0.0010,0.0018,0.0016,0.0054,0.0054,0.0824,000000c3,0*a0bdb5b0
#INSPVAXA,FILE,0,61.0,FINESTEERING,2076,463143.600,00000000,4e14,14102;INS_SOLUTION_GOOD,INS_PSRSP,22.87972626144,113.86867575913,42.2882,-4.3000,-0.0017,-0.0009,-0.0002,-0.029146015,-1.505221015,261.595146193,0.1007,0.0850,0.1544,0.0010,0.0018,0.0016,0.0054,0.0054,0.0824,000000c3,0*5a66cb58
#INSPVAXA,FILE,0,60.0,FINESTEERING,2076,463143.800,00000000,4e14,14102;INS_SOLUTION_GOOD,INS_PSRSP,22.87972626117,113.86867575212,42.2888,-4.3000,0.0002,-0.0016,0.0003,-0.030444564,-1.502822953,261.596709653,0.1007,0.0850,0.1544,0.0010,0.0018,0.0016,0.0054,0.0054,0.0824,000000c3,0*70109219
#INSPVAXA,FILE,0,60.0,FINESTEERING,2076,463144.000,00000000,4e14,14102;INS_SOLUTION_GOOD,INS_PSRSP,22.87972626108,113.86867574464,42.2894,-4.3000,-0.0026,-0.0007,0.0005,-0.031090294,-1.504511030,261.595634571,0.1007,0.0850,0.1544,0.0010,0.0018,0.0016,0.0054,0.0054,0.0824,000000c3,0*befabb15
#INSPVAXA,FILE,0,60.0,FINESTEERING,2076,463144.200,00000000,4e14,14102;INS_SOLUTION_GOOD,INS_PSRSP,22.87972626246,113.86867574062,42.2897,-4.3000,0.0005,-0.0004,0.0001,-0.028830246,-1.503969115,261.595541594,0.1007,0.0850,0.1544,0.0009,0.0012,0.0012,0.0050,0.0050,0.0824,000000c3,0*5d4d100d
#INSPVAXA,FILE,0,60.0,FINESTEERING,2076,463144.400,00000000,4e14,14102;INS_SOLUTION_GOOD,INS_PSRSP,22.87972626340,113.86867573849,42.2899,-4.3000,-0.0012,-0.0017,-0.0001,-0.028258055,-1.505101189,261.594605592,0.1007,0.0850,0.1544,0.0009,0.0012,0.0012,0.0050,0.0050,0.0824,000000c3,0*f322ca3f
#INSPVAXA,FILE,0,60.0,FINESTEERING,2076,463144.600,00000000,4e14,14102;INS_SOLUTION_GOOD,INS_PSRSP,22.87972626429,113.86867573612,42.2901,-4.3000,0.0005,-0.0019,-0.0003,-0.027803213,-1.500870196,261.594973731,0.1007,0.0850,0.1544,0.0009,0.0012,0.0012,0.0050,0.0050,0.0824,000000c3,0*df418ce0
#INSPVAXA,FILE,0,60.0,FINESTEERING,2076,463144.800,00000000,4e14,14102;INS_SOLUTION_GOOD,INS_PSRSP,22.87972626513,113.86867573380,42.2902,-4.3000,0.0010,-0.0013,0.0004,-0.029401919,-1.502946762,261.595288427,0.1007,0.0850,0.1544,0.0009,0.0012,0.0012,0.0050,0.0050,0.0824,000000c3,0*cae6b65b
#INSPVAXA,FILE,0,61.0,FINESTEERING,2076,463145.000,00000000,4e14,14102;INS_SOLUTION_GOOD,INS_PSRSP,22.87972626594,113.86867573130,42.2904,-4.3000,-0.0023,-0.0019,0.0005,-0.030832756,-1.505135593,261.593436395,0.1007,0.0850,0.1544,0.0009,0.0012,0.0012,0.0050,0.0050,0.0824,000000c3,0*1890d35f
#INSPVAXA,FILE,0,61.0,FINESTEERING,2076,463145.200,00000000,4e14,14102;INS_SOLUTION_GOOD,INS_PSRSP,22.87972626698,113.86867572914,42.2905,-4.3000,0.0018,-0.0009,-0.0000,-0.027863205,-1.502790306,261.596340440,0.1007,0.0850,0.1544,0.0008,0.0011,0.0010,0.0050,0.0050,0.0824,00000044,0*71c11f13
#INSPVAXA,FILE,0,61.0,FINESTEERING,2076,463145.400,00000000,4e14,14102;INS_SOLUTION_GOOD,INS_PSRSP,22.87972626815,113.86867572718,42.2906,-4.3000,0.0006,-0.0009,0.0001,-0.029174662,-1.504367278,261.595238452,0.1007,0.0850,0.1544,0.0008,0.0011,0.0010,0.0050,0.0050,0.0824,00000044,0*fe7ff2cc
#INSPVAXA,FILE,0,61.0,FINESTEERING,2076,463145.600,00000000,4e14,14102;INS_SOLUTION_GOOD,INS_PSRSP,22.87972626944,113.86867572537,42.2907,-4.3000,0.0016,-0.0006,0.0001,-0.029401974,-1.500469838,261.595133590,0.1007,0.0850,0.1544,0.0008,0.0011,0.0010,0.0050,0.0050,0.0824,00000044,0*481ad9f5
#INSPVAXA,FILE,0,59.0,FINESTEERING,2076,463145.800,00000000,4e14,14102;INS_SOLUTION_GOOD,INS_PSRSP,22.87972627076,113.86867572361,42.2908,-4.3000,0.0011,-0.0000,0.0002,-0.030295307,-1.501489358,261.597143716,0.1007,0.0850,0.1544,0.0008,0.0011,0.0010,0.0050,0.0050,0.0824,00000044,0*b2b173f8
#INSPVAXA,FILE,0,59.0,FINESTEERING,2076,463146.000,00000000,4e14,14102;INS_SOLUTION_GOOD,INS_PSRSP,22.87972627215,113.86867572188,42.2909,-4.3000,-0.0008,-0.0014,0.0003,-0.027956755,-1.502956068,261.594513462,0.1007,0.0850,0.1544,0.0008,0.0011,0.0010,0.0050,0.0050,0.0824,00000044,0*5648d0d2
#INSPVAXA,FILE,0,59.0,FINESTEERING,2076,463146.200,00000000,4e14,14102;INS_SOLUTION_GOOD,INS_PSRSP,22.87972627354,113.86867572029,42.2910,-4.3000,0.0026,-0.0005,-0.0003,-0.026932499,-1.499926914,261.594544886,0.1007,0.0850,0.1544,0.0008,0.0010,0.0010,0.0050,0.0050,0.0825,00000044,0*5b61e747
#INSPVAXA,FILE,0,59.0,FINESTEERING,2076,463146.400,00000000,4e14,14102;INS_SOLUTION_GOOD,INS_PSRSP,22.87972627493,113.86867571882,42.2911,-4.3000,0.0006,-0.0005,-0.0001,-0.028326405,-1.502308586,261.594471138,0.1007,0.0850,0.1544,0.0008,0.0010,0.0010,0.0050,0.0050,0.0825,00000044,0*de008343
#INSPVAXA,FILE,0,59.0,FINESTEERING,2076,463146.600,00000000,4e14,14102;INS_SOLUTION_GOOD,INS_PSRSP,22.87972627633,113.86867571746,42.2912,-4.3000,0.0012,0.0000,-0.0003,-0.028458927,-1.499244577,261.595006425,0.1007,0.0850,0.1544,0.0008,0.0010,0.0010,0.0050,0.0050,0.0825,00000044,0*8de3e4bc
#INSPVAXA,FILE,0,59.0,FINESTEERING,2076,463146.800,00000000,4e14,14102;INS_SOLUTION_GOOD,INS_PSRSP,22.87972627773,113.86867571617,42.2913,-4.3000,0.0007,0.0004,0.0000,-0.028710683,-1.503237383,261.595823197,0.1007,0.0850,0.1544,0.0008,0.0010,0.0010,0.0050,0.0050,0.0825,00000044,0*db496079
#INSPVAXA,FILE,0,60.5,FINESTEERING,2076,463147.000,00000000,4e14,14102;INS_SOLUTION_GOOD,INS_PSRSP,22.87972627913,113.86867571493,42.2913,-4.3000,0.0003,-0.0014,-0.0003,-0.028488864,-1.502674329,261.594497497,0.1007,0.0850,0.1544,0.0008,0.0010,0.0010,0.0050,0.0050,0.0825,00000044,0*ba42e040
#INSPVAXA,FILE,0,60.5,FINESTEERING,2076,463147.200,00000000,4e14,14102;INS_SOLUTION_GOOD,INS_PSRSP,22.87972628048,113.86867571379,42.2914,-4.3000,0.0020,0.0002,-0.0005,-0.029751011,-1.498690435,261.596079443,0.1007,0.0850,0.1544,0.0008,0.0010,0.0010,0.0050,0.0050,0.0825,00000044,0*32489ce5
#INSPVAXA,FILE,0,60.5,FINESTEERING,2076,463147.400,00000000,4e14,14102;INS_SOLUTION_GOOD,INS_PSRSP,22.87972628177,113.86867571275,42.2915,-4.3000,-0.0010,-0.0003,0.0002,-0.031523242,-1.502378593,261.595589982,0.1007,0.0850,0.1544,0.0008,0.0010,0.0010,0.0050,0.0050,0.0825,00000044,0*5388659a
#INSPVAXA,FILE,0,60.5,FINESTEERING,2076,463147.600,00000000,4e14,14102;INS_SOLUTION_GOOD,INS_PSRSP,22.87972628302,113.86867571179,42.2915,-4.3000,0.0019,0.0004,-0.0001,-0.029136374,-1.499813845,261.596403069,0.1007,0.0850,0.1544,0.0008,0.0010,0.0010,0.0050,0.0050,0.0825,00000044,0*644d72a4
#INSPVAXA,FILE,0,60.5,FINESTEERING,2076,463147.800,00000000,4e14,14102;INS_SOLUTION_GOOD,INS_PSRSP,22.87972628422,113.86867571090,42.2916,-4.3000,-0.0003,-0.0012,-0.0001,-0.030040851,-1.500890058,261.595633955,0.1007,0.0850,0.1544,0.0008,0.0010,0.0010,0.0050,0.0050,0.0825,00000044,0*5c6eea75
#INSPVAXA,FILE,0,60.5,FINESTEERING,2076,463148.000,00000000,4e14,14102;INS_SOLUTION_GOOD,INS_PSRSP,22.87972628538,113.86867571006,42.2916,-4.3000,0.0005,-0.0011,-0.0006,-0.030158714,-1.498381478,261.595613725,0.1007,0.0850,0.1544,0.0008,0.0010,0.0010,0.0050,0.0050,0.0825,00000044,0*26b833a4
#INSPVAXA,FILE,0,60.5,FINESTEERING,2076,463148.200,00000000,4e14,14102;INS_SOLUTION_GOOD,INS_PSRSP,22.87972628647,113.86867570931,42.2917,-4.3000,0.0008,0.0009,0.0001,-0.031002907,-1.498933395,261.595770744,0.1007,0.0851,0.1544,0.0008,0.0010,0.0010,0.0050,0.0050,0.0825,00000044,0*689fc575
#INSPVAXA,FILE,0,60.5,FINESTEERING,2076,463148.400,00000000,4e14,14102;INS_SOLUTION_GOOD,INS_PSRSP,22.87972628751,113.86867570866,42.2917,-4.3000,-0.0020,-0.0001,0.0002,-0.032308655,-1.500260345,261.593389701,0.1007,0.0851,0.1544,0.0008,0.0010,0.0010,0.0050,0.0050,0.0825,00000044,0*62515573
#INSPVAXA,FILE,0,60.5,FINESTEERING,2076,463148.600,00000000,4e14,14102;INS_SOLUTION_GOOD,INS_PSRSP,22.87972628849,113.86867570810,42.2917,-4.3000,0.0013,0.0005,-0.0004,-0.030930262,-1.498473220,261.594564462,0.1007,0.0851,0.1544,0.0008,0.0010,0.0010,0.0050,0.0050,0.0825,00000044,0*1cf0f7ed
#INSPVAXA,FILE,0,60.5,FINESTEERING,2076,463148.800,00000000,4e14,14102;INS_SOLUTION_GOOD,INS_PSRSP,22.87972628940,113.86867570764,42.2918,-4.3000,-0.0005,0.0001,0.0001,-0.032109971,-1.499437380,261.594795662,0.1007,0.0851,0.1544,0.0008,0.0010,0.0010,0.0050,0.0050,0.0825,00000044,0*681c2e32
#INSPVAXA,FILE,0,61.0,FINESTEERING,2076,463149.000,00000000,4e14,14102;INS_SOLUTION_GOOD,INS_PSRSP,22.87972629026,113.86867570726,42.2918,-4.3000,0.0009,0.0015,-0.0000,-0.031999948,-1.496595030,261.594552129,0.1007,0.0851,0.1544,0.0008,0.0010,0.0010,0.0050,0.0050,0.0825,00000044,0*290c847b
#INSPVAXA,FILE,0,61.0,FINESTEERING,2076,463149.200,00000000,4e14,14102;INS_SOLUTION_GOOD,INS_PSRSP,22.87972629105,113.86867570694,42.2919,-4.3000,-0.0006,0.0012,0.0000,-0.032647983,-1.498672090,261.595655079,0.1008,0.0851,0.1544,0.0007,0.0010,0.0010,0.0050,0.0050,0.0825,00000044,0*759d4be7
#INSPVAXA,FILE,0,61.0,FINESTEERING,2076,463149.400,00000000,4e14,14102;INS_SOLUTION_GOOD,INS_PSRSP,22.87972629179,113.86867570667,42.2919,-4.3000,-0.0010,0.0001,-0.0004,-0.030844718,-1.499970743,261.595441970,0.1008,0.0851,0.1544,0.0007,0.0010,0.0010,0.0050,0.0050,0.0825,00000044,0*e6a75d36
#INSPVAXA,FILE,0,61.0,FINESTEERING,2076,463149.600,00000000,4e14,14102;INS_SOLUTION_GOOD,INS_PSRSP,22.87972629247,113.86867570646,42.2919,-4.3000,0.0016,0.0010,0.0001,-0.031579104,-1.496905731,261.596671816,0.1008,0.0851,0.1544,0.0007,0.0010,0.0010,0.0050,0.0050,0.0825,00000044,0*65c57597
#INSPVAXA,FILE,0,61.0,FINESTEERING,2076,463149.800,00000000,4e14,14102;INS_SOLUTION_GOOD,INS_PSRSP,22.87972629309,113.86867570630,42.2920,-4.3000,-0.0019,0.0005,0.0002,-0.033285811,-1.499121779,261.595819258,0.1008,0.0851,0.1544,0.0007,0.0010,0.0010,0.0050,0.0050,0.0825,00000044,0*7ed8b594
#INSPVAXA,FILE,0,61.0,FINESTEERING,2076,463150.000,00000000,4e14,14102;INS_SOLUTION_GOOD,INS_PSRSP,22.87972629365,113.86867570619,42.2920,-4.3000,0.0004,0.0014,-0.0001,-0.031893734,-1.496279463,261.597521262,0.1008,0.0851,0.1544,0.0007,0.0010,0.0010,0.0050,0.0050,0.0825,00000044,0*5a742535
#INSPVAXA,FILE,0,61.0,FINESTEERING,2076,463150.200,00000000,4e14,14102;INS_SOLUTION_GOOD,INS_PSRSP,22.87972629415,113.86867570611,42.2920,-4.3000,-0.0013,0.0002,-0.0001,-0.033035566,-1.498721304,261.596172941,0.1008,0.0851,0.1544,0.0007,0.0010,0.0010,0.0050,0.0050,0.0826,00000044,0*74e4d360
#INSPVAXA,FILE,0,61.0,FINESTEERING,2076,463150.400,00000000,4e14,14102;INS_SOLUTION_GOOD,INS_PSRSP,22.87972629458,113.86867570605,42.2920,-4.3000,0.0014,0.0011,-0.0004,-0.032237067,-1.494989907,261.598263098,0.1008,0.0851,0.1544,0.0007,0.0010,0.0010,0.0050,0.0050,0.0826,00000044,0*541639f5
#INSPVAXA,FILE,0,61.0,FINESTEERING,2076,463150.600,00000000,4e14,14102;INS_SOLUTION_GOOD,INS_PSRSP,22.87972629493,113.86867570603,42.2921,-4.3000,-0.0009,0.0014,-0.0002,-0.032712005,-1.497761044,261.598078682,0.1008,0.0851,0.1544,0.0007,0.0010,0.0010,0.0050,0.0050,0.0826,00000044,0*3806b2c5
#INSPVAXA,FILE,0,61.0,FINESTEERING,2076,463150.800,00000000,4e14,14102;INS_SOLUTION_GOOD,INS_PSRSP,22.87972629522,113.86867570604,42.2921,-4.3000,-0.0024,0.0010,-0.0002,-0.030132617,-1.496949067,261.595807809,0.1008,0.0851,0.1544,0.0007,0.0010,0.0010,0.0050,0.0050,0.0826,00000044,0*a114cae7
#INSPVAXA,FILE,0,61.0,FINESTEERING,2076,463151.000,00000000,4e14,14102;INS_SOLUTION_GOOD,INS_PSRSP,22.87972629543,113.86867570609,42.2921,-4.3000,0.0001,0.0015,-0.0003,-0.029017509,-1.495690353,261.597510924,0.1008,0.0851,0.1544,0.0007,0.0010,0.0010,0.0050,0.0050,0.0826,00000044,0*1f7cee39
#INSPVAXA,FILE,0,61.0,FINESTEERING,2076,463151.200,00000000,4e14,14102;INS_SOLUTION_GOOD,INS_PSRSP,22.87972629558,113.86867570614,42.2921,-4.3000,-0.0022,-0.0008,0.0001,-0.029146980,-1.497666159,261.596498671,0.1008,0.0851,0.1544,0.0007,0.0010,0.0010,0.0050,0.0050,0.0826,00000044,0*8f0b4b41
