#BESTPOSA,FILE,0,65.5,FINESTEERING,2076,463110.400,00000000,b1f6,14102;SOL_COMPUTED,INS_PSRSP,22.87972775089,113.86867577754,42.9158,-4.3000,WGS84,0.1164,0.1020,0.1683,"",0.000,0.000,20,16,16,16,00,86,00,33*70e9b71b
#BESTPOSA,FILE,0,65.5,FINESTEERING,2076,463110.600,00000000,b1f6,14102;SOL_COMPUTED,INS_PSRSP,22.87972775023,113.86867577378,42.9168,-4.3000,WGS84,0.1164,0.1020,0.1683,"",0.000,0.000,20,16,16,16,00,86,00,33*e14be71b
#BESTPOSA,FILE,0,66.0,FINESTEERING,2076,463110.800,00000000,b1f6,14102;SOL_COMPUTED,INS_PSRSP,22.87972775467,113.86867576662,42.9175,-4.3000,WGS84,0.1164,0.1020,0.1683,"",0.000,0.000,20,16,16,16,00,86,00,33*b9194862
#BESTPOSA,FILE,0,66.0,FINESTEERING,2076,463111.000,00000000,b1f6,14102;SOL_COMPUTED,INS_PSRSP,22.87972775540,113.86867576262,42.9182,-4.3000,WGS84,0.1164,0.1020,0.1683,"",0.000,0.000,20,16,16,16,00,86,00,33*bb4a37f2
#BESTPOSA,FILE,0,66.0,FINESTEERING,2076,463111.200,00000000,b1f6,14102;SOL_COMPUTED,INS_PSRSP,22.87972776030,113.86867575279,42.9193,-4.3000,WGS84,0.1161,0.1017,0.1678,"",0.000,0.000,20,16,16,16,00,86,00,33*f7c91728
#BESTPOSA,FILE,0,66.0,FINESTEERING,2076,463111.400,00000000,b1f6,14102;SOL_COMPUTED,INS_PSRSP,22.87972776425,113.86867574270,42.9205,-4.3000,WGS84,0.1161,0.1017,0.1678,"",0.000,0.000,20,16,16,16,00,86,00,33*85082e3c
#BESTPOSA,FILE,0,59.0,FINESTEERING,2076,463111.600,00000000,b1f6,14102;SOL_COMPUTED,INS_PSRSP,22.87972777005,113.86867573180,42.9217,-4.3000,WGS84,0.1161,0.1017,0.1678,"",0.000,0.000,20,16,16,16,00,86,00,33*42a67e5a
#BESTPOSA,FILE,0,59.0,FINESTEERING,2076,463111.800,00000000,b1f6,14102;SOL_COMPUTED,INS_PSRSP,22.87972777449,113.86867572050,42.9230,-4.3000,WGS84,0.1161,0.1017,0.1678,"",0.000,0.000,20,16,16,16,00,86,00,33*f6e0f630
#BESTPOSA,FILE,0,59.0,FINESTEERING,2076,463112.000,00000000,b1f6,14102;SOL_COMPUTED,INS_PSRSP,22.87972777949,113.86867570948,42.9253,-4.3000,WGS84,0.1161,0.1017,0.1678,"",0.000,0.000,20,16,16,16,00,86,00,33*47c12f08
#BESTPOSA,FILE,0,59.0,FINESTEERING,2076,463112.200,00000000,b1f6,14102;SOL_COMPUTED,INS_PSRSP,22.87972778360,113.86867569528,42.9287,-4.3000,WGS84,0.1158,0.1015,0.1674,"",0.000,0.000,20,16,16,16,00,86,00,33*f1a67305
#BESTPOSA,FILE,0,59.0,FINESTEERING,2076,463112.400,00000000,b1f6,14102;SOL_COMPUTED,INS_PSRSP,22.87972779259,113.86867567737,42.9309,-4.3000,WGS84,0.1158,0.1015,0.1674,"",0.000,0.000,20,16,16,16,00,86,00,33*dfe95dd4
#BESTPOSA,FILE,0,59.0,FINESTEERING,2076,463112.600,00000000,b1f6,14102;SOL_COMPUTED,INS_PSRSP,22.87972779845,113.86867566140,42.9333,-4.3000,WGS84,0.1158,0.1015,0.1674,"",0.000,0.000,20,16,16,16,00,86,00,33*02ebdaa8
#BESTPOSA,FILE,0,60.5,FINESTEERING,2076,463112.800,00000000,b1f6,14102;SOL_COMPUTED,INS_PSRSP,22.87972780697,113.86867564434,42.9357,-4.3000,WGS84,0.1158,0.1015,0.1674,"",0.000,0.000,20,16,16,16,00,86,00,33*aca8fff5
#BESTPOSA,FILE,0,60.5,FINESTEERING,2076,463113.000,00000000,b1f6,14102;SOL_COMPUTED,INS_PSRSP,22.87972781321,113.86867562659,42.9380,-4.3000,WGS84,0.1158,0.1015,0.1674,"",0.000,0.000,20,16,16,16,00,86,00,33*e8e7b9f2
#BESTPOSA,FILE,0,60.5,FINESTEERING,2076,463113.200,00000000,b1f6,14102;SOL_COMPUTED,INS_PSRSP,22.87972782104,113.86867561664,42.9393,-4.3000,WGS84,0.1155,0.1012,0.1669,"",0.000,0.000,20,16,16,16,00,86,00,33*f8a3cbdb
#BESTPOSA,FILE,0,60.5,FINESTEERING,2076,463113.400,00000000,b1f6,14102;SOL_COMPUTED,INS_PSRSP,22.87972782655,113.86867560618,42.9402,-4.3000,WGS84,0.1155,0.1012,0.1669,"",0.000,0.000,20,16,16,16,00,86,00,33*c799bca0
#BESTPOSA,FILE,0,60.0,FINESTEERING,2076,463113.600,00000000,b1f6,14102;SOL_COMPUTED,INS_PSRSP,22.87972783475,113.86867559676,42.9412,-4.3000,WGS84,0.1155,0.1012,0.1669,"",0.000,0.000,20,16,16,16,00,86,00,33*60c90d16
#BESTPOSA,FILE,0,60.0,FINESTEERING,2076,463113.800,00000000,b1f6,14102;SOL_COMPUTED,INS_PSRSP,22.87972784400,113.86867558325,42.9431,-4.3000,WGS84,0.1155,0.1012,0.1669,"",0.000,0.000,20,16,16,16,00,86,00,33*47f0bc18
#BESTPOSA,FILE,0,60.0,FINESTEERING,2076,463114.000,00000000,b1f6,14102;SOL_COMPUTED,INS_PSRSP,22.87972784820,113.86867557436,42.9464,-4.3000,WGS84,0.1155,0.1012,0.1669,"",0.000,0.000,20,16,16,16,00,86,00,33*9ff7874f
#BESTPOSA,FILE,0,60.0,FINESTEERING,2076,463114.200,00000000,b1f6,14102;SOL_COMPUTED,INS_PSRSP,22.87972785575,113.86867555986,42.9476,-4.3000,WGS84,0.1153,0.1011,0.1665,"",0.000,0.000,20,16,16,16,00,86,00,33*a1c5ad00
#BESTPOSA,FILE,0,60.0,FINESTEERING,2076,463114.400,00000000,b1f6,14102;SOL_COMPUTED,INS_PSRSP,22.87972786285,113.86867554650,42.9486,-4.3000,WGS84,0.1153,0.1011,0.1665,"",0.000,0.000,20,16,16,16,00,86,00,33*85de08c7
#BESTPOSA,FILE,0,60.0,FINESTEERING,2076,463114.600,00000000,b1f6,14102;SOL_COMPUTED,INS_PSRSP,22.87972786893,113.86867553050,42.9497,-4.3000,WGS84,0.1153,0.1011,0.1665,"",0.000,0.000,20,16,16,16,00,86,00,33*9f817975
#BESTPOSA,FILE,0,61.0,FINESTEERING,2076,463114.800,00000000,b1f6,14102;SOL_COMPUTED,INS_PSRSP,22.87972787639,113.86867551706,42.9507,-4.3000,WGS84,0.1153,0.1011,0.1665,"",0.000,0.000,20,16,16,16,00,86,00,33*c17e7196
#BESTPOSA,FILE,0,61.0,FINESTEERING,2076,463115.000,00000000,b1f6,14102;SOL_COMPUTED,INS_PSRSP,22.87972788260,113.86867550059,42.9517,-4.3000,WGS84,0.1153,0.1011,0.1665,"",0.000,0.000,20,16,16,16,00,86,00,33*f021f530
#BESTPOSA,FILE,0,61.0,FINESTEERING,2076,463115.200,00000000,b1f6,14102;SOL_COMPUTED,INS_PSRSP,22.87972788444,113.86867549202,42.9529,-4.3000,WGS84,0.1151,0.1009,0.1661,"",0.000,0.000,20,16,16,16,00,86,00,33*c91fb4bd
#BESTPOSA,FILE,0,61.0,FINESTEERING,2076,463115.400,00000000,b1f6,14102;SOL_COMPUTED,INS_PSRSP,22.87972788558,113.86867548182,42.9540,-4.3000,WGS84,0.1151,0.1009,0.1661,"",0.000,0.000,20,16,16,16,00,86,00,33*feca2294
#BESTPOSA,FILE,0,60.0,FINESTEERING,2076,463115.600,00000000,b1f6,14102;SOL_COMPUTED,INS_PSRSP,22.87972788607,113.86867547267,42.9551,-4.3000,WGS84,0.1151,0.1009,0.1661,"",0.000,0.000,20,16,16,16,00,86,00,33*b2be4e1f
#BESTPOSA,FILE,0,60.0,FINESTEERING,2076,463115.800,00000000,b1f6,14102;SOL_COMPUTED,INS_PSRSP,22.87972788645,113.86867546303,42.9563,-4.3000,WGS84,0.1151,0.1009,0.1661,"",0.000,0.000,20,16,16,16,00,86,00,33*bb97cf56
#BESTPOSA,FILE,0,60.0,FINESTEERING,2076,463116.000,00000000,b1f6,14102;SOL_COMPUTED,INS_PSRSP,22.87972788656,113.86867545236,42.9574,-4.3000,WGS84,0.1151,0.1009,0.1661,"",0.000,0.000,20,16,16,16,00,86,00,33*ca8a444e
#BESTPOSA,FILE,0,60.0,FINESTEERING,2076,463116.200,00000000,b1f6,14102;SOL_COMPUTED,INS_PSRSP,22.87972789289,113.86867544516,42.9585,-4.3000,WGS84,0.1149,0.1008,0.1657,"",0.000,0.000,20,16,16,16,00,86,00,33*e36770a0
#BESTPOSA,FILE,0,60.0,FINESTEERING,2076,463116.400,00000000,b1f6,14102;SOL_COMPUTED,INS_PSRSP,22.87972789787,113.86867543608,42.9595,-4.3000,WGS84,0.1149,0.1008,0.1657,"",0.000,0.000,20,16,16,16,00,86,00,33*804246d9
#BESTPOSA,FILE,0,60.0,FINESTEERING,2076,463116.600,00000000,b1f6,14102;SOL_COMPUTED,INS_PSRSP,22.87972790507,113.86867542831,42.9605,-4.3000,WGS84,0.1149,0.1008,0.1657,"",0.000,0.000,20,16,16,16,00,86,00,33*a1f12aa9
#BESTPOSA,FILE,0,60.5,FINESTEERING,2076,463116.800,00000000,b1f6,14102;SOL_COMPUTED,INS_PSRSP,22.87972791021,113.86867541931,42.9615,-4.3000,WGS84,0.1149,0.1008,0.1657,"",0.000,0.000,20,16,16,16,00,86,00,33*13247246
#BESTPOSA,FILE,0,60.5,FINESTEERING,2076,463117.000,00000000,b1f6,14102;SOL_COMPUTED,INS_PSRSP,22.87972791642,113.86867541050,42.9625,-4.3000,WGS84,0.1149,0.1008,0.1657,"",0.000,0.000,20,16,16,16,00,86,00,33*7cb3129b
#BESTPOSA,FILE,0,60.5,FINESTEERING,2076,463117.200,00000000,b1f6,14102;SOL_COMPUTED,INS_PSRSP,22.87972791691,113.86867542411,42.9626,-4.3000,WGS84,0.1146,0.1004,0.1656,"",0.000,0.000,20,16,16,16,00,86,00,33*a117d35a
#BESTPOSA,FILE,0,60.5,FINESTEERING,2076,463117.400,00000000,b1f6,14102;SOL_COMPUTED,INS_PSRSP,22.87972791719,113.86867543351,42.9626,-4.3000,WGS84,0.1146,0.1004,0.1656,"",0.000,0.000,20,16,16,16,00,86,00,33*5ac003bb
#BESTPOSA,FILE,0,60.0,FINESTEERING,2076,463117.600,00000000,b1f6,14102;SOL_COMPUTED,INS_PSRSP,22.87972791740,113.86867544456,42.9626,-4.3000,WGS84,0.1146,0.1004,0.1656,"",0.000,0.000,20,16,16,16,00,86,00,33*692d879a
#BESTPOSA,FILE,0,60.0,FINESTEERING,2076,463117.800,00000000,b1f6,14102;SOL_COMPUTED,INS_PSRSP,22.87972791711,113.86867545712,42.9626,-4.3000,WGS84,0.1146,0.1004,0.1656,"",0.000,0.000,20,16,16,16,00,86,00,33*183b60ad
#BESTPOSA,FILE,0,60.0,FINESTEERING,2076,463118.000,00000000,b1f6,14102;SOL_COMPUTED,INS_PSRSP,22.87972791652,113.86867547132,42.9622,-4.3000,WGS84,0.1146,0.1004,0.1656,"",0.000,0.000,20,16,16,16,00,86,00,33*ca31cece
#BESTPOSA,FILE,0,60.0,FINESTEERING,2076,463118.200,00000000,b1f6,14102;SOL_COMPUTED,INS_PSRSP,22.87972791708,113.86867551170,42.9609,-4.3000,WGS84,0.1143,0.1002,0.1652,"",0.000,0.000,20,16,16,16,00,86,00,33*b2fb5c0a
#BESTPOSA,FILE,0,60.0,FINESTEERING,2076,463118.400,00000000,b1f6,14102;SOL_COMPUTED,INS_PSRSP,22.87972791807,113.86867550071,42.9618,-4.3000,WGS84,0.1143,0.1002,0.1652,"",0.000,0.000,20,16,16,16,00,86,00,33*37a4ef54
#BESTPOSA,FILE,0,60.0,FINESTEERING,2076,463118.600,00000000,b1f6,14102;SOL_COMPUTED,INS_PSRSP,22.87972792411,113.86867549301,42.9627,-4.3000,WGS84,0.1143,0.1002,0.1652,"",0.000,0.000,20,16,16,16,00,86,00,33*a3a495d9
#BESTPOSA,FILE,0,61.0,FINESTEERING,2076,463118.800,00000000,b1f6,14102;SOL_COMPUTED,INS_PSRSP,22.87972792440,113.86867548071,42.9637,-4.3000,WGS84,0.1143,0.1002,0.1652,"",0.000,0.000,20,16,16,16,00,86,00,33*6e66e5ef
#BESTPOSA,FILE,0,61.0,FINESTEERING,2076,463119.000,00000000,b1f6,14102;SOL_COMPUTED,INS_PSRSP,22.87972792880,113.86867547246,42.9646,-4.3000,WGS84,0.1143,0.1002,0.1652,"",0.000,0.000,20,16,16,16,00,86,00,33*36c804fd
#BESTPOSA,FILE,0,61.0,FINESTEERING,2076,463119.200,00000000,b1f6,14102;SOL_COMPUTED,INS_PSRSP,22.87972793103,113.86867546408,42.9656,-4.3000,WGS84,0.1140,0.1000,0.1648,"",0.000,0.000,20,16,16,16,00,86,00,33*6cc690d6
#BESTPOSA,FILE,0,61.0,FINESTEERING,2076,463119.400,00000000,b1f6,14102;SOL_COMPUTED,INS_PSRSP,22.87972793456,113.86867545637,42.9666,-4.3000,WGS84,0.1140,0.1000,0.1648,"",0.000,0.000,20,16,16,16,00,86,00,33*0c0e81a3
#BESTPOSA,FILE,0,60.5,FINESTEERING,2076,463119.600,00000000,b1f6,14102;SOL_COMPUTED,INS_PSRSP,22.87972793711,113.86867544910,42.9677,-4.3000,WGS84,0.1140,0.1000,0.1648,"",0.000,0.000,20,16,16,16,00,86,00,33*2053aa19
#BESTPOSA,FILE,0,60.5,FINESTEERING,2076,463119.800,00000000,b1f6,14102;SOL_COMPUTED,INS_PSRSP,22.87972794048,113.86867544085,42.9688,-4.3000,WGS84,0.1140,0.1000,0.1648,"",0.000,0.000,20,16,16,16,00,86,00,33*1f52d541
#BESTPOSA,FILE,0,60.5,FINESTEERING,2076,463120.000,00000000,b1f6,14102;SOL_COMPUTED,INS_PSRSP,22.87972794201,113.86867543408,42.9699,-4.3000,WGS84,0.1140,0.1000,0.1648,"",0.000,0.000,20,16,16,16,00,86,00,33*76dd0b9b
#BESTPOSA,FILE,0,60.5,FINESTEERING,2076,463120.200,00000000,b1f6,14102;SOL_COMPUTED,INS_PSRSP,22.87972794218,113.86867542578,42.9710,-4.3000,WGS84,0.1138,0.0997,0.1644,"",0.000,0.000,20,16,16,16,00,86,00,33*a45ee201
#BESTPOSA,FILE,0,60.5,FINESTEERING,2076,463120.400,00000000,b1f6,14102;SOL_COMPUTED,INS_PSRSP,22.87972794147,113.86867541832,42.9721,-4.3000,WGS84,0.1138,0.0997,0.1644,"",0.000,0.000,20,16,16,16,00,86,00,33*73b61a9d
#BESTPOSA,FILE,0,59.0,FINESTEERING,2076,463120.600,00000000,b1f6,14102;SOL_COMPUTED,INS_PSRSP,22.87972794107,113.86867540982,42.9731,-4.3000,WGS84,0.1138,0.0997,0.1644,"",0.000,0.000,20,16,16,16,00,86,00,33*6aeb956d
#BESTPOSA,FILE,0,59.0,FINESTEERING,2076,463120.800,00000000,b1f6,14102;SOL_COMPUTED,INS_PSRSP,22.87972793958,113.86867540227,42.9741,-4.3000,WGS84,0.1138,0.0997,0.1644,"",0.000,0.000,20,16,16,16,00,86,00,33*f3c591e2
#BESTPOSA,FILE,0,59.0,FINESTEERING,2076,463121.000,00000000,b1f6,14102;SOL_COMPUTED,INS_PSRSP,22.87972793805,113.86867539447,42.9751,-4.3000,WGS84,0.1138,0.0997,0.1644,"",0.000,0.000,20,16,16,16,00,86,00,33*4463b1c2
#BESTPOSA,FILE,0,59.0,FINESTEERING,2076,463121.200,00000000,b1f6,14102;SOL_COMPUTED,INS_PSRSP,22.87972794072,113.86867539225,42.9753,-4.3000,WGS84,0.1138,0.0997,0.1643,"",0.000,0.000,20,16,16,16,00,86,00,33*ee73fbe7
#BESTPOSA,FILE,0,59.0,FINESTEERING,2076,463121.400,00000000,b1f6,14102;SOL_COMPUTED,INS_PSRSP,22.87972794271,113.86867539135,42.9754,-4.3000,WGS84,0.1138,0.0997,0.1643,"",0.000,0.000,20,16,16,16,00,86,00,33*8062afb3
#BESTPOSA,FILE,0,59.0,FINESTEERING,2076,463121.600,00000000,b1f6,14102;SOL_COMPUTED,INS_PSRSP,22.87972794464,113.86867538974,42.9755,-4.3000,WGS84,0.1138,0.0997,0.1643,"",0.000,0.000,20,16,16,16,00,86,00,33*1232ea0a
#BESTPOSA,FILE,0,59.0,FINESTEERING,2076,463121.800,00000000,b1f6,14102;SOL_COMPUTED,INS_PSRSP,22.87972794672,113.86867538944,42.9755,-4.3000,WGS84,0.1138,0.0997,0.1643,"",0.000,0.000,20,16,16,16,00,86,00,33*cdd79887
#BESTPOSA,FILE,0,59.0,FINESTEERING,2076,463122.000,00000000,b1f6,14102;SOL_COMPUTED,INS_PSRSP,22.87972794832,113.86867538812,42.9756,-4.3000,WGS84,0.1138,0.0997,0.1643,"",0.000,0.000,20,16,16,16,00,86,00,33*8d2f3f98
#BESTPOSA,FILE,0,59.0,FINESTEERING,2076,463122.200,00000000,b1f6,14102;SOL_COMPUTED,INS_PSRSP,22.87972794983,113.86867538708,42.9756,-4.3000,WGS84,0.1138,0.0998,0.1643,"",0.000,0.000,20,16,16,16,00,86,00,33*2fe1e424
#BESTPOSA,FILE,0,59.0,FINESTEERING,2076,463122.400,00000000,b1f6,14102;SOL_COMPUTED,INS_PSRSP,22.87972795059,113.86867538668,42.9756,-4.3000,WGS84,0.1138,0.0998,0.1643,"",0.000,0.000,20,16,16,16,00,86,00,33*913e2169
#BESTPOSA,FILE,0,59.0,FINESTEERING,2076,463122.600,00000000,b1f6,14102;SOL_COMPUTED,INS_PSRSP,22.87972795115,113.86867538611,42.9756,-4.3000,WGS84,0.1138,0.0998,0.1643,"",0.000,0.000,20,16,16,16,00,86,00,33*b1faa3cf
#BESTPOSA,FILE,0,61.0,FINESTEERING,2076,463122.800,00000000,b1f6,14102;SOL_COMPUTED,INS_PSRSP,22.87972795093,113.86867538592,42.9756,-4.3000,WGS84,0.1138,0.0998,0.1643,"",0.000,0.000,20,16,16,16,00,86,00,33*bb1a1b04
#BESTPOSA,FILE,0,61.0,FINESTEERING,2076,463123.000,00000000,b1f6,14102;SOL_COMPUTED,INS_PSRSP,22.87972795066,113.86867538551,42.9756,-4.3000,WGS84,0.1138,0.0998,0.1643,"",0.000,0.000,20,16,16,16,00,86,00,33*62d5ae32
#BESTPOSA,FILE,0,61.0,FINESTEERING,2076,463123.200,00000000,b1f6,14102;SOL_COMPUTED,INS_PSRSP,22.87972795035,113.86867538528,42.9755,-4.3000,WGS84,0.1138,0.0998,0.1643,"",0.000,0.000,20,16,16,16,00,86,00,33*0793cc49
#BESTPOSA,FILE,0,61.0,FINESTEERING,2076,463123.400,00000000,b1f6,14102;SOL_COMPUTED,INS_PSRSP,22.87972795013,113.86867538509,42.9755,-4.3000,WGS84,0.1138,0.0998,0.1643,"",0.000,0.000,20,16,16,16,00,86,00,33*bebbf56c
#BESTPOSA,FILE,0,60.0,FINESTEERING,2076,463123.600,00000000,b1f6,14102;SOL_COMPUTED,INS_PSRSP,22.87972794923,113.86867538460,42.9754,-4.3000,WGS84,0.1138,0.0998,0.1643,"",0.000,0.000,20,16,16,16,00,86,00,33*db6f61b0
#BESTPOSA,FILE,0,60.0,FINESTEERING,2076,463123.800,00000000,b1f6,14102;SOL_COMPUTED,INS_PSRSP,22.87972794872,113.86867538443,42.9754,-4.3000,WGS84,0.1138,0.0998,0.1643,"",0.000,0.000,20,16,16,16,00,86,00,33*b6834b48
#BESTPOSA,FILE,0,60.0,FINESTEERING,2076,463124.000,00000000,b1f6,14102;SOL_COMPUTED,INS_PSRSP,22.87972794786,113.86867538327,42.9753,-4.3000,WGS84,0.1138,0.0998,0.1643,"",0.000,0.000,20,16,16,16,00,86,00,33*ed29a6bd
#BESTPOSA,FILE,0,60.0,FINESTEERING,2076,463124.200,00000000,b1f6,14102;SOL_COMPUTED,INS_PSRSP,22.87972794743,113.86867538399,42.9753,-4.3000,WGS84,0.1138,0.0998,0.1643,"",0.000,0.000,20,16,16,16,00,86,00,33*773ddda4
#BESTPOSA,FILE,0,60.0,FINESTEERING,2076,463124.400,00000000,b1f6,14102;SOL_COMPUTED,INS_PSRSP,22.87972794629,113.86867538397,42.9752,-4.3000,WGS84,0.1138,0.0998,0.1643,"",0.000,0.000,20,16,16,16,00,86,00,33*80929b1c
#BESTPOSA,FILE,0,60.0,FINESTEERING,2076,463124.600,00000000,b1f6,14102;SOL_COMPUTED,INS_PSRSP,22.87972794559,113.86867538346,42.9752,-4.3000,WGS84,0.1138,0.0998,0.1643,"",0.000,0.000,20,16,16,16,00,86,00,33*67fc4269
#BESTPOSA,FILE,0,60.0,FINESTEERING,2076,463124.800,00000000,b1f6,14102;SOL_COMPUTED,INS_PSRSP,22.87972794470,113.86867538349,42.9751,-4.3000,WGS84,0.1138,0.0998,0.1643,"",0.000,0.000,20,16,16,16,00,86,00,33*1ec6d367
#BESTPOSA,FILE,0,60.0,FINESTEERING,2076,463125.000,00000000,b1f6,14102;SOL_COMPUTED,INS_PSRSP,22.87972794391,113.86867538275,42.9750,-4.3000,WGS84,0.1138,0.0998,0.1643,"",0.000,0.000,20,16,16,16,00,86,00,33*f8d90df8
#BESTPOSA,FILE,0,60.0,FINESTEERING,2076,463125.200,00000000,b1f6,14102;SOL_COMPUTED,INS_PSRSP,22.87972794343,113.86867538308,42.9749,-4.3000,WGS84,0.1138,0.0998,0.1643,"",0.000,0.000,20,16,16,16,00,86,00,33*4224c4fb
#BESTPOSA,FILE,0,60.0,FINESTEERING,2076,463125.400,00000000,b1f6,14102;SOL_COMPUTED,INS_PSRSP,22.87972794247,113.86867538283,42.9749,-4.3000,WGS84,0.1138,0.0998,0.1643,"",0.000,0.000,20,16,16,16,00,86,00,33*924a9ab6
#BESTPOSA,FILE,0,60.0,FINESTEERING,2076,463125.600,00000000,b1f6,14102;SOL_COMPUTED,INS_PSRSP,22.87972794179,113.86867538262,42.9748,-4.3000,WGS84,0.1138,0.0998,0.1643,"",0.000,0.000,20,16,16,16,00,86,00,33*fe516061
#BESTPOSA,FILE,0,61.0,FINESTEERING,2076,463125.800,00000000,b1f6,14102;SOL_COMPUTED,INS_PSRSP,22.87972794101,113.86867538227,42.9747,-4.3000,WGS84,0.1138,0.0998,0.1643,"",0.000,0.000,20,16,16,16,00,86,00,33*05ec72c7
#BESTPOSA,FILE,0,61.0,FINESTEERING,2076,463126.000,00000000,b1f6,14102;SOL_COMPUTED,INS_PSRSP,22.87972794022,113.86867538191,42.9747,-4.3000,WGS84,0.1138,0.0998,0.1643,"",0.000,0.000,20,16,16,16,00,86,00,33*a673b72d
#BESTPOSA,FILE,0,61.0,FINESTEERING,2076,463126.200,00000000,b1f6,14102;SOL_COMPUTED,INS_PSRSP,22.87972793966,113.86867538199,42.9746,-4.3000,WGS84,0.1138,0.0998,0.1643,"",0.000,0.000,20,16,16,16,00,86,00,33*fc047ecf
#BESTPOSA,FILE,0,61.0,FINESTEERING,2076,463126.400,00000000,b1f6,14102;SOL_COMPUTED,INS_PSRSP,22.87972793901,113.86867538157,42.9745,-4.3000,WGS84,0.1138,0.0998,0.1643,"",0.000,0.000,20,16,16,16,00,86,00,33*f8a255a9
#BESTPOSA,FILE,0,61.0,FINESTEERING,2076,463126.600,00000000,b1f6,14102;SOL_COMPUTED,INS_PSRSP,22.87972793852,113.86867538179,42.9744,-4.3000,WGS84,0.1138,0.0998,0.1643,"",0.000,0.000,20,16,16,16,00,86,00,33*cae0c5de
#BESTPOSA,FILE,0,61.0,FINESTEERING,2076,463126.800,00000000,b1f6,14102;SOL_COMPUTED,INS_PSRSP,22.87972793772,113.86867538117,42.9744,-4.3000,WGS84,0.1138,0.0998,0.1643,"",0.000,0.000,20,16,16,16,00,86,00,33*63e2a483
#BESTPOSA,FILE,0,61.0,FINESTEERING,2076,463127.000,00000000,b1f6,14102;SOL_COMPUTED,INS_PSRSP,22.87972793740,113.86867538150,42.9743,-4.3000,WGS84,0.1138,0.0998,0.1643,"",0.000,0.000,20,16,16,16,00,86,00,33*36ed3934
#BESTPOSA,FILE,0,61.0,FINESTEERING,2076,463127.200,00000000,b1f6,14102;SOL_COMPUTED,INS_PSRSP,22.87972793699,113.86867538124,42.9743,-4.3000,WGS84,0.1138,0.0998,0.1643,"",0.000,0.000,20,16,16,16,00,86,00,33*c3c76fdb
#BESTPOSA,FILE,0,61.0,FINESTEERING,2076,463127.400,00000000,b1f6,14102;SOL_COMPUTED,INS_PSRSP,22.87972793675,113.86867538088,42.9742,-4.3000,WGS84,0.1138,0.0998,0.1643,"",0.000,0.000,20,16,16,16,00,86,00,33*fc855721
#BESTPOSA,FILE,0,61.0,FINESTEERING,2076,463127.600,00000000,b1f6,14102;SOL_COMPUTED,INS_PSRSP,22.87972793656,113.86867538130,42.9741,-4.3000,WGS84,0.1138,0.0998,0.1643,"",0.000,0.000,20,16,16,16,00,86,00,33*0962e371
#BESTPOSA,FILE,0,61.0,FINESTEERING,2076,463127.800,00000000,b1f6,14102;SOL_COMPUTED,INS_PSRSP,22.87972793614,113.86867538105,42.9741,-4.3000,WGS84,0.1138,0.0998,0.1643,"",0.000,0.000,20,16,16,16,00,86,00,33*140721e7
#BESTPOSA,FILE,0,61.0,FINESTEERING,2076,463128.000,00000000,b1f6,14102;SOL_COMPUTED,INS_PSRSP,22.87972793581,113.86867538130,42.9740,-4.3000,WGS84,0.1138,0.0998,0.1643,"",0.000,0.000,20,16,16,16,00,86,00,33*19f3de07
#BESTPOSA,FILE,0,61.0,FINESTEERING,2076,463128.200,00000000,b1f6,14102;SOL_COMPUTED,INS_PSRSP,22.87972793571,113.86867538101,42.9740,-4.3000,WGS84,0.1138,0.0998,0.1643,"",0.000,0.000,20,16,16,16,00,86,00,33*165b6140
#BESTPOSA,FILE,0,61.0,FINESTEERING,2076,463128.400,00000000,b1f6,14102;SOL_COMPUTED,INS_PSRSP,22.87972793569,113.86867538114,42.9739,-4.3000,WGS84,0.1138,0.0998,0.1643,"",0.000,0.000,20,16,16,16,00,86,00,33*3c4a4179
#BESTPOSA,FILE,0,61.0,FINESTEERING,2076,463128.600,00000000,b1f6,14102;SOL_COMPUTED,INS_PSRSP,22.87972793552,113.86867538142,42.9739,-4.3000,WGS84,0.1138,0.0998,0.1643,"",0.000,0.000,20,16,16,16,00,86,00,33*32c5236b
#BESTPOSA,FILE,0,61.0,FINESTEERING,2076,463128.800,00000000,b1f6,14102;SOL_COMPUTED,INS_PSRSP,22.87972793531,113.86867538100,42.9738,-4.3000,WGS84,0.1138,0.0998,0.1643,"",0.000,0.000,20,16,16,16,00,86,00,33*83a0e04e
#BESTPOSA,FILE,0,61.5,FINESTEERING,2076,463129.000,00000000,b1f6,14102;SOL_COMPUTED,INS_PSRSP,22.87972793539,113.86867538063,42.9738,-4.3000,WGS84,0.1138,0.0998,0.1643,"",0.000,0.000,20,16,16,16,00,86,00,33*c5aab1de
#BESTPOSA,FILE,0,61.5,FINESTEERING,2076,463129.200,00000000,b1f6,14102;SOL_COMPUTED,INS_PSRSP,22.87972793513,113.86867538044,42.9738,-4.3000,WGS84,0.1138,0.0998,0.1643,"",0.000,0.000,20,16,16,16,00,86,00,33*10dba441
#BESTPOSA,FILE,0,61.5,FINESTEERING,2076,463129.400,00000000,b1f6,14102;SOL_COMPUTED,INS_PSRSP,22.87972793515,113.86867538045,42.9737,-4.3000,WGS84,0.1138,0.0998,0.1643,"",0.000,0.000,20,16,16,16,00,86,00,33*e1f2283c
#BESTPOSA,FILE,0,61.5,FINESTEERING,2076,463129.600,00000000,b1f6,14102;SOL_COMPUTED,INS_PSRSP,22.87972793499,113.86867538045,42.9737,-4.3000,WGS84,0.1138,0.0998,0.1643,"",0.000,0.000,20,16,16,16,00,86,00,33*bede99e7
#BESTPOSA,FILE,0,59.5,FINESTEERING,2076,463129.800,00000000,b1f6,14102;SOL_COMPUTED,INS_PSRSP,22.87972793510,113.86867538054,42.9736,-4.3000,WGS84,0.1138,0.0998,0.1643,"",0.000,0.000,20,16,16,16,00,86,00,33*ded49e23
#BESTPOSA,FILE,0,59.5,FINESTEERING,2076,463130.000,00000000,b1f6,14102;SOL_COMPUTED,INS_PSRSP,22.87972793501,113.86867538125,42.9736,-4.3000,WGS84,0.1138,0.0998,0.1643,"",0.000,0.000,20,16,16,16,00,86,00,33*24db492e
#BESTPOSA,FILE,0,59.5,FINESTEERING,2076,463130.200,00000000,b1f6,14102;SOL_COMPUTED,INS_PSRSP,22.87972793485,113.86867538124,42.9736,-4.3000,WGS84,0.1139,0.0998,0.1644,"",0.000,0.000,20,16,16,16,00,86,00,33*40fc61fe
#BESTPOSA,FILE,0,59.5,FINESTEERING,2076,463130.400,00000000,b1f6,14102;SOL_COMPUTED,INS_PSRSP,22.87972793483,113.86867538131,42.9735,-4.3000,WGS84,0.1139,0.0998,0.1644,"",0.000,0.000,20,16,16,16,00,86,00,33*3a8229ae
#BESTPOSA,FILE,0,59.5,FINESTEERING,2076,463130.600,00000000,b1f6,14102;SOL_COMPUTED,INS_PSRSP,22.87972793507,113.86867538135,42.9735,-4.3000,WGS84,0.1139,0.0998,0.1644,"",0.000,0.000,20,16,16,16,00,86,00,33*babddc99
#BESTPOSA,FILE,0,59.5,FINESTEERING,2076,463130.800,00000000,b1f6,14102;SOL_COMPUTED,INS_PSRSP,22.87972793496,113.86867538136,42.9735,-4.3000,WGS84,0.1139,0.0998,0.1644,"",0.000,0.000,20,16,16,16,00,86,00,33*744493a0
#BESTPOSA,FILE,0,61.0,FINESTEERING,2076,463131.000,00000000,b1f6,14102;SOL_COMPUTED,INS_PSRSP,22.87972793476,113.86867538205,42.9734,-4.3000,WGS84,0.1139,0.0998,0.1644,"",0.000,0.000,20,16,16,16,00,86,00,33*bd8c70b6
#BESTPOSA,FILE,0,61.0,FINESTEERING,2076,463131.200,00000000,b1f6,14102;SOL_COMPUTED,INS_PSRSP,22.87972793442,113.86867538149,42.9734,-4.3000,WGS84,0.1139,0.0999,0.1644,"",0.000,0.000,20,16,16,16,00,86,00,33*c2beca18
#BESTPOSA,FILE,0,61.0,FINESTEERING,2076,463131.400,00000000,b1f6,14102;SOL_COMPUTED,INS_PSRSP,22.87972793435,113.86867538071,42.9734,-4.3000,WGS84,0.1139,0.0999,0.1644,"",0.000,0.000,20,16,16,16,00,86,00,33*92612717
#BESTPOSA,FILE,0,61.0,FINESTEERING,2076,463131.600,00000000,b1f6,14102;SOL_COMPUTED,INS_PSRSP,22.87972793415,113.86867537813,42.9733,-4.3000,WGS84,0.1139,0.0999,0.1644,"",0.000,0.000,20,16,16,16,00,86,00,33*a5d48f78
#BESTPOSA,FILE,0,60.0,FINESTEERING,2076,463131.800,00000000,b1f6,14102;SOL_COMPUTED,INS_PSRSP,22.87972793400,113.86867537661,42.9733,-4.3000,WGS84,0.1139,0.0999,0.1644,"",0.000,0.000,20,16,16,16,00,86,00,33*67ef88d4
#BESTPOSA,FILE,0,60.0,FINESTEERING,2076,463132.000,00000000,b1f6,14102;SOL_COMPUTED,INS_PSRSP,22.87972793382,113.86867537550,42.9733,-4.3000,WGS84,0.1139,0.0999,0.1644,"",0.000,0.000,20,16,16,16,00,86,00,33*fe9ef7ed
#BESTPOSA,FILE,0,60.0,FINESTEERING,2076,463132.200,00000000,b1f6,14102;SOL_COMPUTED,INS_PSRSP,22.87972792924,113.86867538607,42.9744,-4.3000,WGS84,0.1135,0.0996,0.1639,"",0.000,0.000,20,16,16,16,00,86,00,33*33632234
#BESTPOSA,FILE,0,60.0,FINESTEERING,2076,463132.400,00000000,b1f6,14102;SOL_COMPUTED,INS_PSRSP,22.87972792929,113.86867538986,42.9739,-4.3000,WGS84,0.1135,0.0996,0.1639,"",0.000,0.000,20,16,16,16,00,86,00,33*2d9ed02d
#BESTPOSA,FILE,0,60.0,FINESTEERING,2076,463132.600,00000000,b1f6,14102;SOL_COMPUTED,INS_PSRSP,22.87972792915,113.86867538813,42.9730,-4.3000,WGS84,0.1135,0.0996,0.1639,"",0.000,0.000,20,16,16,16,00,86,00,33*f8257786
#BESTPOSA,FILE,0,60.0,FINESTEERING,2076,463132.800,00000000,b1f6,14102;SOL_COMPUTED,INS_PSRSP,22.87972792882,113.86867538994,42.9730,-4.3000,WGS84,0.1135,0.0996,0.1639,"",0.000,0.000,20,16,16,16,00,86,00,33*cbe1b532
#BESTPOSA,FILE,0,61.5,FINESTEERING,2076,463133.000,00000000,b1f6,14102;SOL_COMPUTED,INS_PSRSP,22.87972792939,113.86867539054,42.9731,-4.3000,WGS84,0.1135,0.0996,0.1639,"",0.000,0.000,20,16,16,16,00,86,00,33*bfc25619
#BESTPOSA,FILE,0,61.5,FINESTEERING,2076,463133.200,00000000,b1f6,14102;SOL_COMPUTED,INS_PSRSP,22.87972793075,113.86867538953,42.9735,-4.3000,WGS84,0.1132,0.0993,0.1635,"",0.000,0.000,20,16,16,16,00,86,00,33*ccd239d3
#BESTPOSA,FILE,0,61.5,FINESTEERING,2076,463133.400,00000000,b1f6,14102;SOL_COMPUTED,INS_PSRSP,22.87972793406,113.86867538949,42.9740,-4.3000,WGS84,0.1132,0.0993,0.1635,"",0.000,0.000,20,16,16,16,00,86,00,33*bc54efd9
#BESTPOSA,FILE,0,61.5,FINESTEERING,2076,463133.600,00000000,b1f6,14102;SOL_COMPUTED,INS_PSRSP,22.87972793564,113.86867538788,42.9745,-4.3000,WGS84,0.1132,0.0993,0.1635,"",0.000,0.000,20,16,16,16,00,86,00,33*5d374961
#BESTPOSA,FILE,0,60.0,FINESTEERING,2076,463133.800,00000000,b1f6,14102;SOL_COMPUTED,INS_PSRSP,22.87972793966,113.86867538836,42.9749,-4.3000,WGS84,0.1132,0.0993,0.1635,"",0.000,0.000,20,16,16,16,00,86,00,33*15a2486f
#BESTPOSA,FILE,0,60.0,FINESTEERING,2076,463134.000,00000000,b1f6,14102;SOL_COMPUTED,INS_PSRSP,22.87972794211,113.86867538765,42.9755,-4.3000,WGS84,0.1132,0.0993,0.1635,"",0.000,0.000,20,16,16,16,00,86,00,33*0f9b1d3e
#BESTPOSA,FILE,0,60.0,FINESTEERING,2076,463134.200,00000000,b1f6,14102;SOL_COMPUTED,INS_PSRSP,22.87972794790,113.86867538627,42.9763,-4.3000,WGS84,0.1130,0.0991,0.1631,"",0.000,0.000,20,16,16,16,00,86,00,33*ce2cc371
#BESTPOSA,FILE,0,60.0,FINESTEERING,2076,463134.400,00000000,b1f6,14102;SOL_COMPUTED,INS_PSRSP,22.87972795354,113.86867538338,42.9772,-4.3000,WGS84,0.1130,0.0991,0.1631,"",0.000,0.000,20,16,16,16,00,86,00,33*c5a41e05
#BESTPOSA,FILE,0,60.0,FINESTEERING,2076,463134.600,00000000,b1f6,14102;SOL_COMPUTED,INS_PSRSP,22.87972796011,113.86867538157,42.9782,-4.3000,WGS84,0.1130,0.0991,0.1631,"",0.000,0.000,20,16,16,16,00,86,00,33*fc5a245b
#BESTPOSA,FILE,0,60.0,FINESTEERING,2076,463134.800,00000000,b1f6,14102;SOL_COMPUTED,INS_PSRSP,22.87972796632,113.86867538065,42.9791,-4.3000,WGS84,0.1130,0.0991,0.1631,"",0.000,0.000,20,16,16,16,00,86,00,33*2b1c57a3
#BESTPOSA,FILE,0,60.5,FINESTEERING,2076,463135.000,00000000,b1f6,14102;SOL_COMPUTED,INS_PSRSP,22.87972797271,113.86867537951,42.9801,-4.3000,WGS84,0.1130,0.0991,0.1631,"",0.000,0.000,20,16,16,16,00,86,00,33*efb9823d
#BESTPOSA,FILE,0,60.5,FINESTEERING,2076,463135.200,00000000,b1f6,14102;SOL_COMPUTED,INS_PSRSP,22.87972797571,113.86867537709,42.9803,-4.3000,WGS84,0.1129,0.0990,0.1631,"",0.000,0.000,20,16,16,16,00,86,00,33*44fc4356
#BESTPOSA,FILE,0,60.5,FINESTEERING,2076,463135.400,00000000,b1f6,14102;SOL_COMPUTED,INS_PSRSP,22.87972797706,113.86867537499,42.9804,-4.3000,WGS84,0.1129,0.0990,0.1631,"",0.000,0.000,20,16,16,16,00,86,00,33*67bb47a1
#BESTPOSA,FILE,0,60.5,FINESTEERING,2076,463135.600,00000000,b1f6,14102;SOL_COMPUTED,INS_PSRSP,22.87972797890,113.86867537378,42.9805,-4.3000,WGS84,0.1129,0.0990,0.1631,"",0.000,0.000,20,16,16,16,00,86,00,33*f52956f4
#BESTPOSA,FILE,0,59.5,FINESTEERING,2076,463135.800,00000000,b1f6,14102;SOL_COMPUTED,INS_PSRSP,22.87972798061,113.86867537219,42.9807,-4.3000,WGS84,0.1129,0.0990,0.1631,"",0.000,0.000,20,16,16,16,00,86,00,33*aeba09e4
#BESTPOSA,FILE,0,59.5,FINESTEERING,2076,463136.000,00000000,b1f6,14102;SOL_COMPUTED,INS_PSRSP,22.87972798219,113.86867537050,42.9808,-4.3000,WGS84,0.1129,0.0990,0.1631,"",0.000,0.000,20,16,16,16,00,86,00,33*e366d755
#BESTPOSA,FILE,0,59.5,FINESTEERING,2076,463136.200,00000000,b1f6,14102;SOL_COMPUTED,INS_PSRSP,22.87972798383,113.86867536943,42.9809,-4.3000,WGS84,0.1130,0.0991,0.1631,"",0.000,0.000,20,16,16,16,00,86,00,33*bd0ce29c
#BESTPOSA,FILE,0,59.5,FINESTEERING,2076,463136.400,00000000,b1f6,14102;SOL_COMPUTED,INS_PSRSP,22.87972798531,113.86867536795,42.9810,-4.3000,WGS84,0.1130,0.0991,0.1631,"",0.000,0.000,20,16,16,16,00,86,00,33*f32638e8
#BESTPOSA,FILE,0,59.5,FINESTEERING,2076,463136.600,00000000,b1f6,14102;SOL_COMPUTED,INS_PSRSP,22.87972798692,113.86867536748,42.9811,-4.3000,WGS84,0.1130,0.0991,0.1631,"",0.000,0.000,20,16,16,16,00,86,00,33*644434cd
#BESTPOSA,FILE,0,59.5,FINESTEERING,2076,463136.800,00000000,b1f6,14102;SOL_COMPUTED,INS_PSRSP,22.87972798816,113.86867536633,42.9812,-4.3000,WGS84,0.1130,0.0991,0.1631,"",0.000,0.000,20,16,16,16,00,86,00,33*40482edb
#BESTPOSA,FILE,0,60.5,FINESTEERING,2076,463137.000,00000000,b1f6,14102;SOL_COMPUTED,INS_PSRSP,22.87972798945,113.86867536533,42.9812,-4.3000,WGS84,0.1130,0.0991,0.1631,"",0.000,0.000,20,16,16,16,00,86,00,33*de1e02c6
#BESTPOSA,FILE,0,60.5,FINESTEERING,2076,463137.200,00000000,b1f6,14102;SOL_COMPUTED,INS_PSRSP,22.87972799117,113.86867536500,42.9813,-4.3000,WGS84,0.1130,0.0991,0.1631,"",0.000,0.000,20,16,16,16,00,86,00,33*fa1a1146
#BESTPOSA,FILE,0,60.5,FINESTEERING,2076,463137.400,00000000,b1f6,14102;SOL_COMPUTED,INS_PSRSP,22.87972799234,113.86867536417,42.9813,-4.3000,WGS84,0.1130,0.0991,0.1631,"",0.000,0.000,20,16,16,16,00,86,00,33*6d8873ff
#BESTPOSA,FILE,0,60.5,FINESTEERING,2076,463137.600,00000000,b1f6,14102;SOL_COMPUTED,INS_PSRSP,22.87972799369,113.86867536396,42.9814,-4.3000,WGS84,0.1130,0.0991,0.1631,"",0.000,0.000,20,16,16,16,00,86,00,33*b433b2f6
#BESTPOSA,FILE,0,60.5,FINESTEERING,2076,463137.800,00000000,b1f6,14102;SOL_COMPUTED,INS_PSRSP,22.87972799500,113.86867536316,42.9814,-4.3000,WGS84,0.1130,0.0991,0.1631,"",0.000,0.000,20,16,16,16,00,86,00,33*9c08a8a5
#BESTPOSA,FILE,0,60.5,FINESTEERING,2076,463138.000,00000000,b1f6,14102;SOL_COMPUTED,INS_PSRSP,22.87972799684,113.86867536296,42.9815,-4.3000,WGS84,0.1130,0.0991,0.1631,"",0.000,0.000,20,16,16,16,00,86,00,33*568d2677
#BESTPOSA,FILE,0,60.5,FINESTEERING,2076,463138.200,00000000,b1f6,14102;SOL_COMPUTED,INS_PSRSP,22.87972799806,113.86867536254,42.9815,-4.3000,WGS84,0.1130,0.0991,0.1631,"",0.000,0.000,20,16,16,16,00,86,00,33*2c61668c
#BESTPOSA,FILE,0,60.5,FINESTEERING,2076,463138.400,00000000,b1f6,14102;SOL_COMPUTED,INS_PSRSP,22.87972799941,113.86867536210,42.9815,-4.3000,WGS84,0.1130,0.0991,0.1631,"",0.000,0.000,20,16,16,16,00,86,00,33*102efcbe
#BESTPOSA,FILE,0,60.5,FINESTEERING,2076,463138.600,00000000,b1f6,14102;SOL_COMPUTED,INS_PSRSP,22.87972800090,113.86867536202,42.9815,-4.3000,WGS84,0.1130,0.0991,0.1631,"",0.000,0.000,20,16,16,16,00,86,00,33*91deee46
#BESTPOSA,FILE,0,60.5,FINESTEERING,2076,463138.800,00000000,b1f6,14102;SOL_COMPUTED,INS_PSRSP,22.87972800230,113.86867536146,42.9816,-4.3000,WGS84,0.1130,0.0991,0.1631,"",0.000,0.000,20,16,16,16,00,86,00,33*1fdefdf8
#BESTPOSA,FILE,0,61.0,FINESTEERING,2076,463139.000,00000000,b1f6,14102;SOL_COMPUTED,INS_PSRSP,22.87972800376,113.86867536144,42.9816,-4.3000,WGS84,0.1130,0.0991,0.1631,"",0.000,0.000,20,16,16,16,00,86,00,33*81db8133
#BESTPOSA,FILE,0,61.0,FINESTEERING,2076,463139.200,00000000,b1f6,14102;SOL_COMPUTED,INS_PSRSP,22.87972800487,113.86867536113,42.9816,-4.3000,WGS84,0.1130,0.0991,0.1631,"",0.000,0.000,20,16,16,16,00,86,00,33*77fc5d6e
#BESTPOSA,FILE,0,61.0,FINESTEERING,2076,463139.400,00000000,b1f6,14102;SOL_COMPUTED,INS_PSRSP,22.87972800602,113.86867536054,42.9816,-4.3000,WGS84,0.1130,0.0991,0.1631,"",0.000,0.000,20,16,16,16,00,86,00,33*2437d145
#BESTPOSA,FILE,0,61.0,FINESTEERING,2076,463139.600,00000000,b1f6,14102;SOL_COMPUTED,INS_PSRSP,22.87972800733,113.86867536057,42.9816,-4.3000,WGS84,0.1130,0.0991,0.1631,"",0.000,0.000,20,16,16,16,00,86,00,33*a5d8730d
#BESTPOSA,FILE,0,60.5,FINESTEERING,2076,463139.800,00000000,b1f6,14102;SOL_COMPUTED,INS_PSRSP,22.87972800819,113.86867536005,42.9816,-4.3000,WGS84,0.1130,0.0991,0.1631,"",0.000,0.000,20,16,16,16,00,86,00,33*be6586e8
#BESTPOSA,FILE,0,60.5,FINESTEERING,2076,463140.000,00000000,b1f6,14102;SOL_COMPUTED,INS_PSRSP,22.87972800925,113.86867536033,42.9816,-4.3000,WGS84,0.1130,0.0991,0.1631,"",0.000,0.000,20,16,16,16,00,86,00,33*d44fd931
#BESTPOSA,FILE,0,60.5,FINESTEERING,2076,463140.200,00000000,b1f6,14102;SOL_COMPUTED,INS_PSRSP,22.87972800979,113.86867535941,42.9817,-4.3000,WGS84,0.1130,0.0991,0.1631,"",0.000,0.000,20,16,16,16,00,86,00,33*e9dd982c
#BESTPOSA,FILE,0,60.5,FINESTEERING,2076,463140.400,00000000,b1f6,14102;SOL_COMPUTED,INS_PSRSP,22.87972801085,113.86867535953,42.9817,-4.3000,WGS84,0.1130,0.0991,0.1631,"",0.000,0.000,20,16,16,16,00,86,00,33*b4f5cf45
#BESTPOSA,FILE,0,60.5,FINESTEERING,2076,463140.600,00000000,b1f6,14102;SOL_COMPUTED,INS_PSRSP,22.87972801150,113.86867535930,42.9817,-4.3000,WGS84,0.1130,0.0991,0.1631,"",0.000,0.000,20,16,16,16,00,86,00,33*ad390b01
#BESTPOSA,FILE,0,60.5,FINESTEERING,2076,463140.800,00000000,b1f6,14102;SOL_COMPUTED,INS_PSRSP,22.87972801204,113.86867535906,42.9817,-4.3000,WGS84,0.1130,0.0991,0.1631,"",0.000,0.000,20,16,16,16,00,86,00,33*d5a2ea47
#BESTPOSA,FILE,0,61.0,FINESTEERING,2076,463141.000,00000000,b1f6,14102;SOL_COMPUTED,INS_PSRSP,22.87972801256,113.86867535895,42.9817,-4.3000,WGS84,0.1130,0.0991,0.1631,"",0.000,0.000,20,16,16,16,00,86,00,33*39f68faf
#BESTPOSA,FILE,0,61.0,FINESTEERING,2076,463141.200,00000000,b1f6,14102;SOL_COMPUTED,INS_PSRSP,22.87972801310,113.86867535892,42.9817,-4.3000,WGS84,0.1130,0.0991,0.1631,"",0.000,0.000,20,16,16,16,00,86,00,33*95e02600
#BESTPOSA,FILE,0,61.0,FINESTEERING,2076,463141.400,00000000,b1f6,14102;SOL_COMPUTED,INS_PSRSP,22.87972801314,113.86867535481,42.9817,-4.3000,WGS84,0.1130,0.0991,0.1631,"",0.000,0.000,20,16,16,16,00,86,00,33*66be497b
#BESTPOSA,FILE,0,61.0,FINESTEERING,2076,463141.600,00000000,b1f6,14102;SOL_COMPUTED,INS_PSRSP,22.87972801314,113.86867535149,42.9818,-4.3000,WGS84,0.1130,0.0991,0.1631,"",0.000,0.000,20,16,16,16,00,86,00,33*076f5524
#BESTPOSA,FILE,0,59.0,FINESTEERING,2076,463141.800,00000000,b1f6,14102;SOL_COMPUTED,INS_PSRSP,22.87972801343,113.86867535145,42.9819,-4.3000,WGS84,0.1130,0.0991,0.1631,"",0.000,0.000,20,16,16,16,00,86,00,33*697f597f
#BESTPOSA,FILE,0,59.0,FINESTEERING,2076,463142.000,00000000,b1f6,14102;SOL_COMPUTED,INS_PSRSP,22.87972801390,113.86867535153,42.9820,-4.3000,WGS84,0.1130,0.0991,0.1631,"",0.000,0.000,20,16,16,16,00,86,00,33*e2489c86
#BESTPOSA,FILE,0,59.0,FINESTEERING,2076,463142.200,00000000,b1f6,14102;SOL_COMPUTED,INS_PSRSP,22.87972802221,113.86867533726,42.9849,-4.3000,WGS84,0.1127,0.0989,0.1627,"",0.000,0.000,20,16,16,16,00,86,00,33*5a593340
#BESTPOSA,FILE,0,59.0,FINESTEERING,2076,463142.400,00000000,b1f6,14102;SOL_COMPUTED,INS_PSRSP,22.87972802155,113.86867533359,42.9853,-4.3000,WGS84,0.1127,0.0989,0.1627,"",0.000,0.000,20,16,16,16,00,86,00,33*214e54e3
#BESTPOSA,FILE,0,59.0,FINESTEERING,2076,463142.600,00000000,b1f6,14102;SOL_COMPUTED,INS_PSRSP,22.87972802085,113.86867532866,42.9856,-4.3000,WGS84,0.1127,0.0989,0.1627,"",0.000,0.000,20,16,16,16,00,86,00,33*0c132ddf
#BESTPOSA,FILE,0,59.0,FINESTEERING,2076,463142.800,00000000,b1f6,14102;SOL_COMPUTED,INS_PSRSP,22.87972802068,113.86867532321,42.9859,-4.3000,WGS84,0.1127,0.0989,0.1627,"",0.000,0.000,20,16,16,16,00,86,00,33*87207727
#BESTPOSA,FILE,0,61.0,FINESTEERING,2076,463143.000,00000000,b1f6,14102;SOL_COMPUTED,INS_PSRSP,22.87972801919,113.86867531918,42.9862,-4.3000,WGS84,0.1127,0.0989,0.1627,"",0.000,0.000,20,16,16,16,00,86,00,33*4a1bbb9b
#BESTPOSA,FILE,0,61.0,FINESTEERING,2076,463143.200,00000000,b1f6,14102;SOL_COMPUTED,INS_PSRSP,22.87972801992,113.86867531160,42.9868,-4.3000,WGS84,0.1124,0.0986,0.1623,"",0.000,0.000,20,16,16,16,00,86,00,33*487a2664
#BESTPOSA,FILE,0,61.0,FINESTEERING,2076,463143.400,00000000,b1f6,14102;SOL_COMPUTED,INS_PSRSP,22.87972802010,113.86867530586,42.9874,-4.3000,WGS84,0.1124,0.0986,0.1623,"",0.000,0.000,20,16,16,16,00,86,00,33*af2d083a
#BESTPOSA,FILE,0,61.0,FINESTEERING,2076,463143.600,00000000,b1f6,14102;SOL_COMPUTED,INS_PSRSP,22.87972802057,113.86867529747,42.9881,-4.3000,WGS84,0.1124,0.0986,0.1623,"",0.000,0.000,20,16,16,16,00,86,00,33*4272c045
#BESTPOSA,FILE,0,60.0,FINESTEERING,2076,463143.800,00000000,b1f6,14102;SOL_COMPUTED,INS_PSRSP,22.87972802021,113.86867529082,42.9887,-4.3000,WGS84,0.1124,0.0986,0.1623,"",0.000,0.000,20,16,16,16,00,86,00,33*d18932f5
#BESTPOSA,FILE,0,60.0,FINESTEERING,2076,463144.000,00000000,b1f6,14102;SOL_COMPUTED,INS_PSRSP,22.87972802001,113.86867528311,42.9893,-4.3000,WGS84,0.1124,0.0986,0.1623,"",0.000,0.000,20,16,16,16,00,86,00,33*2ede07d2
#BESTPOSA,FILE,0,60.0,FINESTEERING,2076,463144.200,00000000,b1f6,14102;SOL_COMPUTED,INS_PSRSP,22.87972802150,113.86867527955,42.9896,-4.3000,WGS84,0.1124,0.0986,0.1623,"",0.000,0.000,20,16,16,16,00,86,00,33*64a30231
#BESTPOSA,FILE,0,60.0,FINESTEERING,2076,463144.400,00000000,b1f6,14102;SOL_COMPUTED,INS_PSRSP,22.87972802237,113.86867527736,42.9897,-4.3000,WGS84,0.1124,0.0986,0.1623,"",0.000,0.000,20,16,16,16,00,86,00,33*4b1874f1
#BESTPOSA,FILE,0,60.0,FINESTEERING,2076,463144.600,00000000,b1f6,14102;SOL_COMPUTED,INS_PSRSP,22.87972802338,113.86867527564,42.9899,-4.3000,WGS84,0.1124,0.0986,0.1623,"",0.000,0.000,20,16,16,16,00,86,00,33*d311726a
#BESTPOSA,FILE,0,60.0,FINESTEERING,2076,463144.800,00000000,b1f6,14102;SOL_COMPUTED,INS_PSRSP,22.87972802401,113.86867527312,42.9900,-4.3000,WGS84,0.1124,0.0986,0.1623,"",0.000,0.000,20,16,16,16,00,86,00,33*54730b18
#BESTPOSA,FILE,0,61.0,FINESTEERING,2076,463145.000,00000000,b1f6,14102;SOL_COMPUTED,INS_PSRSP,22.87972802463,113.86867527040,42.9902,-4.3000,WGS84,0.1124,0.0986,0.1623,"",0.000,0.000,20,16,16,16,00,86,00,33*5e464fb0
#BESTPOSA,FILE,0,61.0,FINESTEERING,2076,463145.200,00000000,b1f6,14102;SOL_COMPUTED,INS_PSRSP,22.87972802595,113.86867526844,42.9903,-4.3000,WGS84,0.1124,0.0986,0.1623,"",0.000,0.000,20,16,16,16,00,86,00,33*4688f92f
#BESTPOSA,FILE,0,61.0,FINESTEERING,2076,463145.400,00000000,b1f6,14102;SOL_COMPUTED,INS_PSRSP,22.87972802691,113.86867526623,42.9904,-4.3000,WGS84,0.1124,0.0986,0.1623,"",0.000,0.000,20,16,16,16,00,86,00,33*3676d292
#BESTPOSA,FILE,0,61.0,FINESTEERING,2076,463145.600,00000000,b1f6,14102;SOL_COMPUTED,INS_PSRSP,22.87972802820,113.86867526485,42.9906,-4.3000,WGS84,0.1124,0.0986,0.1623,"",0.000,0.000,20,16,16,16,00,86,00,33*3cac7aab
#BESTPOSA,FILE,0,59.0,FINESTEERING,2076,463145.800,00000000,b1f6,14102;SOL_COMPUTED,INS_PSRSP,22.87972802941,113.86867526303,42.9907,-4.3000,WGS84,0.1124,0.0986,0.1623,"",0.000,0.000,20,16,16,16,00,86,00,33*a0105617
#BESTPOSA,FILE,0,59.0,FINESTEERING,2076,463146.000,00000000,b1f6,14102;SOL_COMPUTED,INS_PSRSP,22.87972803099,113.86867526100,42.9908,-4.3000,WGS84,0.1124,0.0986,0.1623,"",0.000,0.000,20,16,16,16,00,86,00,33*c32852b4
#BESTPOSA,FILE,0,59.0,FINESTEERING,2076,463146.200,00000000,b1f6,14102;SOL_COMPUTED,INS_PSRSP,22.87972803254,113.86867525970,42.9909,-4.3000,WGS84,0.1124,0.0986,0.1623,"",0.000,0.000,20,16,16,16,00,86,00,33*a5c57fde
#BESTPOSA,FILE,0,59.0,FINESTEERING,2076,463146.400,00000000,b1f6,14102;SOL_COMPUTED,INS_PSRSP,22.87972803374,113.86867525794,42.9910,-4.3000,WGS84,0.1124,0.0986,0.1623,"",0.000,0.000,20,16,16,16,00,86,00,33*49be4a0a
#BESTPOSA,FILE,0,59.0,FINESTEERING,2076,463146.600,00000000,b1f6,14102;SOL_COMPUTED,INS_PSRSP,22.87972803518,113.86867525692,42.9910,-4.3000,WGS84,0.1124,0.0986,0.1623,"",0.000,0.000,20,16,16,16,00,86,00,33*eaac280e
#BESTPOSA,FILE,0,59.0,FINESTEERING,2076,463146.800,00000000,b1f6,14102;SOL_COMPUTED,INS_PSRSP,22.87972803649,113.86867525517,42.9911,-4.3000,WGS84,0.1124,0.0986,0.1623,"",0.000,0.000,20,16,16,16,00,86,00,33*bdf2f1f6
#BESTPOSA,FILE,0,60.5,FINESTEERING,2076,463147.000,00000000,b1f6,14102;SOL_COMPUTED,INS_PSRSP,22.87972803791,113.86867525393,42.9912,-4.3000,WGS84,0.1124,0.0986,0.1623,"",0.000,0.000,20,16,16,16,00,86,00,33*216f4e14
#BESTPOSA,FILE,0,60.5,FINESTEERING,2076,463147.200,00000000,b1f6,14102;SOL_COMPUTED,INS_PSRSP,22.87972803921,113.86867525330,42.9912,-4.3000,WGS84,0.1125,0.0987,0.1623,"",0.000,0.000,20,16,16,16,00,86,00,33*9d43f243
#BESTPOSA,FILE,0,60.5,FINESTEERING,2076,463147.400,00000000,b1f6,14102;SOL_COMPUTED,INS_PSRSP,22.87972804027,113.86867525181,42.9913,-4.3000,WGS84,0.1125,0.0987,0.1623,"",0.000,0.000,20,16,16,16,00,86,00,33*564acf97
#BESTPOSA,FILE,0,60.5,FINESTEERING,2076,463147.600,00000000,b1f6,14102;SOL_COMPUTED,INS_PSRSP,22.87972804184,113.86867525112,42.9914,-4.3000,WGS84,0.1125,0.0987,0.1623,"",0.000,0.000,20,16,16,16,00,86,00,33*f61b6689
#BESTPOSA,FILE,0,60.5,FINESTEERING,2076,463147.800,00000000,b1f6,14102;SOL_COMPUTED,INS_PSRSP,22.87972804294,113.86867525007,42.9914,-4.3000,WGS84,0.1125,0.0987,0.1623,"",0.000,0.000,20,16,16,16,00,86,00,33*55fe706d
#BESTPOSA,FILE,0,60.5,FINESTEERING,2076,463148.000,00000000,b1f6,14102;SOL_COMPUTED,INS_PSRSP,22.87972804414,113.86867524951,42.9915,-4.3000,WGS84,0.1125,0.0987,0.1623,"",0.000,0.000,20,16,16,16,00,86,00,33*a3304a5a
#BESTPOSA,FILE,0,60.5,FINESTEERING,2076,463148.200,00000000,b1f6,14102;SOL_COMPUTED,INS_PSRSP,22.87972804515,113.86867524868,42.9915,-4.3000,WGS84,0.1125,0.0987,0.1623,"",0.000,0.000,20,16,16,16,00,86,00,33*66fb9069
#BESTPOSA,FILE,0,60.5,FINESTEERING,2076,463148.400,00000000,b1f6,14102;SOL_COMPUTED,INS_PSRSP,22.87972804602,113.86867524778,42.9916,-4.3000,WGS84,0.1125,0.0987,0.1623,"",0.000,0.000,20,16,16,16,00,86,00,33*a558fdef
#BESTPOSA,FILE,0,60.5,FINESTEERING,2076,463148.600,00000000,b1f6,14102;SOL_COMPUTED,INS_PSRSP,22.87972804721,113.86867524742,42.9916,-4.3000,WGS84,0.1125,0.0987,0.1623,"",0.000,0.000,20,16,16,16,00,86,00,33*bb160ea0
#BESTPOSA,FILE,0,60.5,FINESTEERING,2076,463148.800,00000000,b1f6,14102;SOL_COMPUTED,INS_PSRSP,22.87972804800,113.86867524684,42.9916,-4.3000,WGS84,0.1125,0.0987,0.1623,"",0.000,0.000,20,16,16,16,00,86,00,33*d687586b
#BESTPOSA,FILE,0,61.0,FINESTEERING,2076,463149.000,00000000,b1f6,14102;SOL_COMPUTED,INS_PSRSP,22.87972804893,113.86867524676,42.9917,-4.3000,WGS84,0.1125,0.0987,0.1623,"",0.000,0.000,20,16,16,16,00,86,00,33*2e7c131f
#BESTPOSA,FILE,0,61.0,FINESTEERING,2076,463149.200,00000000,b1f6,14102;SOL_COMPUTED,INS_PSRSP,22.87972804965,113.86867524623,42.9917,-4.3000,WGS84,0.1125,0.0987,0.1623,"",0.000,0.000,20,16,16,16,00,86,00,33*e3554533
#BESTPOSA,FILE,0,61.0,FINESTEERING,2076,463149.400,00000000,b1f6,14102;SOL_COMPUTED,INS_PSRSP,22.87972805058,113.86867524575,42.9918,-4.3000,WGS84,0.1125,0.0987,0.1623,"",0.000,0.000,20,16,16,16,00,86,00,33*fd31fd3d
#BESTPOSA,FILE,0,61.0,FINESTEERING,2076,463149.600,00000000,b1f6,14102;SOL_COMPUTED,INS_PSRSP,22.87972805126,113.86867524593,42.9918,-4.3000,WGS84,0.1125,0.0987,0.1623,"",0.000,0.000,20,16,16,16,00,86,00,33*b5e21487
#BESTPOSA,FILE,0,61.0,FINESTEERING,2076,463149.800,00000000,b1f6,14102;SOL_COMPUTED,INS_PSRSP,22.87972805167,113.86867524549,42.9918,-4.3000,WGS84,0.1125,0.0987,0.1623,"",0.000,0.000,20,16,16,16,00,86,00,33*f62e9344
#BESTPOSA,FILE,0,61.0,FINESTEERING,2076,463150.000,00000000,b1f6,14102;SOL_COMPUTED,INS_PSRSP,22.87972805246,113.86867524574,42.9918,-4.3000,WGS84,0.1125,0.0987,0.1623,"",0.000,0.000,20,16,16,16,00,86,00,33*4852341a
#BESTPOSA,FILE,0,61.0,FINESTEERING,2076,463150.200,00000000,b1f6,14102;SOL_COMPUTED,INS_PSRSP,22.87972805280,113.86867524534,42.9919,-4.3000,WGS84,0.1125,0.0987,0.1623,"",0.000,0.000,20,16,16,16,00,86,00,33*2ccdb9fa
#BESTPOSA,FILE,0,61.0,FINESTEERING,2076,463150.400,00000000,b1f6,14102;SOL_COMPUTED,INS_PSRSP,22.87972805342,113.86867524577,42.9919,-4.3000,WGS84,0.1125,0.0987,0.1623,"",0.000,0.000,20,16,16,16,00,86,00,33*8ff23f10
#BESTPOSA,FILE,0,61.0,FINESTEERING,2076,463150.600,00000000,b1f6,14102;SOL_COMPUTED,INS_PSRSP,22.87972805370,113.86867524541,42.9919,-4.3000,WGS84,0.1125,0.0987,0.1623,"",0.000,0.000,20,16,16,16,00,86,00,33*b58c8f37
#BESTPOSA,FILE,0,61.0,FINESTEERING,2076,463150.800,00000000,b1f6,14102;SOL_COMPUTED,INS_PSRSP,22.87972805428,113.86867524538,42.9919,-4.3000,WGS84,0.1125,0.0987,0.1623,"",0.000,0.000,20,16,16,16,00,86,00,33*adcdb4a7
#BESTPOSA,FILE,0,61.0,FINESTEERING,2076,463151.000,00000000,b1f6,14102;SOL_COMPUTED,INS_PSRSP,22.87972805468,113.86867524561,42.9920,-4.3000,WGS84,0.1125,0.0987,0.1623,"",0.000,0.000,20,16,16,16,00,86,00,33*84fbed1e
#BESTPOSA,FILE,0,61.0,FINESTEERING,2076,463151.200,00000000,b1f6,14102;SOL_COMPUTED,INS_PSRSP,22.87972805480,113.86867524540,42.9920,-4.3000,WGS84,0.1125,0.0987,0.1623,"",0.000,0.000,20,16,16,16,00,86,00,33*6223231f
#BESTPOSA,FILE,0,61.0,FINESTEERING,2076,463151.400,00000000,b1f6,14102;SOL_COMPUTED,INS_PSRSP,22.87972805493,113.86867524590,42.9920,-4.3000,WGS84,0.1125,0.0987,0.1623,"",0.000,0.000,20,16,16,16,00,86,00,33*3532e7bc
#BESTPOSA,FILE,0,61.0,FINESTEERING,2076,463151.600,00000000,b1f6,14102;SOL_COMPUTED,INS_PSRSP,22.87972805490,113.86867524566,42.9920,-4.3000,WGS84,0.1125,0.0987,0.1623,"",0.000,0.000,20,16,16,16,00,86,00,33*6a789438
#BESTPOSA,FILE,0,60.0,FINESTEERING,2076,463151.800,00000000,b1f6,14102;SOL_COMPUTED,INS_PSRSP,22.87972805492,113.86867524563,42.9920,-4.3000,WGS84,0.1125,0.0987,0.1623,"",0.000,0.000,20,16,16,16,00,86,00,33*517a3f5c
#BESTPOSA,FILE,0,60.0,FINESTEERING,2076,463152.000,00000000,b1f6,14102;SOL_COMPUTED,INS_PSRSP,22.87972805489,113.86867524578,42.9921,-4.3000,WGS84,0.1125,0.0987,0.1623,"",0.000,0.000,20,16,16,16,00,86,00,33*e14919f7
#BESTPOSA,FILE,0,60.0,FINESTEERING,2076,463152.200,00000000,b1f6,14102;SOL_COMPUTED,INS_PSRSP,22.87972805456,113.86867524580,42.9921,-4.3000,WGS84,0.1125,0.0987,0.1623,"",0.000,0.000,20,16,16,16,00,86,00,33*5feac9db
#BESTPOSA,FILE,0,60.0,FINESTEERING,2076,463152.400,00000000,b1f6,14102;SOL_COMPUTED,INS_PSRSP,22.87972805443,113.86867524811,42.9921,-4.3000,WGS84,0.1125,0.0987,0.1623,"",0.000,0.000,20,16,16,16,00,86,00,33*96be1839
#BESTPOSA,FILE,0,60.0,FINESTEERING,2076,463152.600,00000000,b1f6,14102;SOL_COMPUTED,INS_PSRSP,22.87972805445,113.86867525121,42.9921,-4.3000,WGS84,0.1125,0.0987,0.1623,"",0.000,0.000,20,16,16,16,00,86,00,33*892d18d4
#BESTPOSA,FILE,0,60.0,FINESTEERING,2076,463152.800,00000000,b1f6,14102;SOL_COMPUTED,INS_PSRSP,22.87972805424,113.86867525157,42.9921,-4.3000,WGS84,0.1125,0.0987,0.1623,"",0.000,0.000,20,16,16,16,00,86,00,33*0256ab00
#BESTPOSA,FILE,0,61.5,FINESTEERING,2076,463153.000,00000000,b1f6,14102;SOL_COMPUTED,INS_PSRSP,22.87972805383,113.86867525151,42.9921,-4.3000,WGS84,0.1125,0.0987,0.1623,"",0.000,0.000,20,16,16,16,00,86,00,33*1cbd0094
#BESTPOSA,FILE,0,61.5,FINESTEERING,2076,463153.200,00000000,b1f6,14102;SOL_COMPUTED,INS_PSRSP,22.87972803969,113.86867525656,42.9913,-4.3000,WGS84,0.1122,0.0984,0.1619,"",0.000,0.000,20,16,16,16,00,86,00,33*fa1d4567
#BESTPOSA,FILE,0,61.5,FINESTEERING,2076,463153.400,00000000,b1f6,14102;SOL_COMPUTED,INS_PSRSP,22.87972803925,113.86867525587,42.9916,-4.3000,WGS84,0.1122,0.0984,0.1619,"",0.000,0.000,20,16,16,16,00,86,00,33*15e327e3
#BESTPOSA,FILE,0,61.5,FINESTEERING,2076,463153.600,00000000,b1f6,14102;SOL_COMPUTED,INS_PSRSP,22.87972803967,113.86867525520,42.9918,-4.3000,WGS84,0.1122,0.0984,0.1619,"",0.000,0.000,20,16,16,16,00,86,00,33*b6a606bd
#BESTPOSA,FILE,0,60.0,FINESTEERING,2076,463153.800,00000000,b1f6,14102;SOL_COMPUTED,INS_PSRSP,22.87972803940,113.86867525575,42.9921,-4.3000,WGS84,0.1122,0.0984,0.1619,"",0.000,0.000,20,16,16,16,00,86,00,33*67ae3fcd
#BESTPOSA,FILE,0,60.0,FINESTEERING,2076,463154.000,00000000,b1f6,14102;SOL_COMPUTED,INS_PSRSP,22.87972803972,113.86867525465,42.9924,-4.3000,WGS84,0.1122,0.0984,0.1619,"",0.000,0.000,20,16,16,16,00,86,00,33*947845c0
#BESTPOSA,FILE,0,60.0,FINESTEERING,2076,463154.200,00000000,b1f6,14102;SOL_COMPUTED,INS_PSRSP,22.87972804083,113.86867525323,42.9929,-4.3000,WGS84,0.1119,0.0982,0.1615,"",0.000,0.000,20,16,16,16,00,86,00,33*dc5d90d6
#BESTPOSA,FILE,0,60.0,FINESTEERING,2076,463154.400,00000000,b1f6,14102;SOL_COMPUTED,INS_PSRSP,22.87972804320,113.86867525110,42.9935,-4.3000,WGS84,0.1119,0.0982,0.1615,"",0.000,0.000,20,16,16,16,00,86,00,33*a6403bc4
#BESTPOSA,FILE,0,60.0,FINESTEERING,2076,463154.600,00000000,b1f6,14102;SOL_COMPUTED,INS_PSRSP,22.87972804446,113.86867524976,42.9941,-4.3000,WGS84,0.1119,0.0982,0.1615,"",0.000,0.000,20,16,16,16,00,86,00,33*ec3bfce0
#BESTPOSA,FILE,0,60.0,FINESTEERING,2076,463154.800,00000000,b1f6,14102;SOL_COMPUTED,INS_PSRSP,22.87972804698,113.86867524844,42.9946,-4.3000,WGS84,0.1119,0.0982,0.1615,"",0.000,0.000,20,16,16,16,00,86,00,33*7d55944b
#BESTPOSA,FILE,0,60.5,FINESTEERING,2076,463155.000,00000000,b1f6,14102;SOL_COMPUTED,INS_PSRSP,22.87972804860,113.86867524704,42.9952,-4.3000,WGS84,0.1119,0.0982,0.1615,"",0.000,0.000,20,16,16,16,00,86,00,33*9d9fa207
#BESTPOSA,FILE,0,60.5,FINESTEERING,2076,463155.200,00000000,b1f6,14102;SOL_COMPUTED,INS_PSRSP,22.87972805098,113.86867524498,42.9954,-4.3000,WGS84,0.1119,0.0982,0.1615,"",0.000,0.000,20,16,16,16,00,86,00,33*126eebba
#BESTPOSA,FILE,0,60.5,FINESTEERING,2076,463155.400,00000000,b1f6,14102;SOL_COMPUTED,INS_PSRSP,22.87972805192,113.86867524428,42.9956,-4.3000,WGS84,0.1119,0.0982,0.1615,"",0.000,0.000,20,16,16,16,00,86,00,33*a916c2f5
#BESTPOSA,FILE,0,60.5,FINESTEERING,2076,463155.600,00000000,b1f6,14102;SOL_COMPUTED,INS_PSRSP,22.87972805297,113.86867524316,42.9957,-4.3000,WGS84,0.1119,0.0982,0.1615,"",0.000,0.000,20,16,16,16,00,86,00,33*1f69d712
#BESTPOSA,FILE,0,60.0,FINESTEERING,2076,463155.800,00000000,b1f6,14102;SOL_COMPUTED,INS_PSRSP,22.87972805430,113.86867524238,42.9959,-4.3000,WGS84,0.1119,0.0982,0.1615,"",0.000,0.000,20,16,16,16,00,86,00,33*3f7085d2
#BESTPOSA,FILE,0,60.0,FINESTEERING,2076,463156.000,00000000,b1f6,14102;SOL_COMPUTED,INS_PSRSP,22.87972805562,113.86867524105,42.9960,-4.3000,WGS84,0.1119,0.0982,0.1615,"",0.000,0.000,20,16,16,16,00,86,00,33*440ef753
#BESTPOSA,FILE,0,60.0,FINESTEERING,2076,463156.200,00000000,b1f6,14102;SOL_COMPUTED,INS_PSRSP,22.87972805692,113.86867523981,42.9961,-4.3000,WGS84,0.1119,0.0982,0.1615,"",0.000,0.000,20,16,16,16,00,86,00,33*9c3e04f9
#BESTPOSA,FILE,0,60.0,FINESTEERING,2076,463156.400,00000000,b1f6,14102;SOL_COMPUTED,INS_PSRSP,22.87972805782,113.86867523887,42.9963,-4.3000,WGS84,0.1119,0.0982,0.1615,"",0.000,0.000,20,16,16,16,00,86,00,33*e8853295
#BESTPOSA,FILE,0,60.0,FINESTEERING,2076,463156.600,00000000,b1f6,14102;SOL_COMPUTED,INS_PSRSP,22.87972805874,113.86867523764,42.9964,-4.3000,WGS84,0.1119,0.0982,0.1615,"",0.000,0.000,20,16,16,16,00,86,00,33*a88264b6
#BESTPOSA,FILE,0,60.0,FINESTEERING,2076,463156.800,00000000,b1f6,14102;SOL_COMPUTED,INS_PSRSP,22.87972806004,113.86867523677,42.9965,-4.3000,WGS84,0.1119,0.0982,0.1615,"",0.000,0.000,20,16,16,16,00,86,00,33*e111f02c
#BESTPOSA,FILE,0,61.0,FINESTEERING,2076,463157.000,00000000,b1f6,14102;SOL_COMPUTED,INS_PSRSP,22.87972806082,113.86867523546,42.9966,-4.3000,WGS84,0.1119,0.0982,0.1615,"",0.000,0.000,20,16,16,16,00,86,00,33*85d96817
#BESTPOSA,FILE,0,61.0,FINESTEERING,2076,463157.200,00000000,b1f6,14102;SOL_COMPUTED,INS_PSRSP,22.87972806190,113.86867523490,42.9967,-4.3000,WGS84,0.1120,0.0982,0.1615,"",0.000,0.000,20,16,16,16,00,86,00,33*fdf6c747
#BESTPOSA,FILE,0,61.0,FINESTEERING,2076,463157.400,00000000,b1f6,14102;SOL_COMPUTED,INS_PSRSP,22.87972806261,113.86867523392,42.9968,-4.3000,WGS84,0.1120,0.0982,0.1615,"",0.000,0.000,20,16,16,16,00,86,00,33*52ecd7ca
#BESTPOSA,FILE,0,61.0,FINESTEERING,2076,463157.600,00000000,b1f6,14102;SOL_COMPUTED,INS_PSRSP,22.87972806349,113.86867523265,42.9969,-4.3000,WGS84,0.1120,0.0982,0.1615,"",0.000,0.000,20,16,16,16,00,86,00,33*9bc085ba
#BESTPOSA,FILE,0,61.0,FINESTEERING,2076,463157.800,00000000,b1f6,14102;SOL_COMPUTED,INS_PSRSP,22.87972806425,113.86867523194,42.9969,-4.3000,WGS84,0.1120,0.0982,0.1615,"",0.000,0.000,20,16,16,16,00,86,00,33*eca530cf
#BESTPOSA,FILE,0,61.0,FINESTEERING,2076,463158.000,00000000,b1f6,14102;SOL_COMPUTED,INS_PSRSP,22.87972806489,113.86867523126,42.9970,-4.3000,WGS84,0.1120,0.0982,0.1615,"",0.000,0.000,20,16,16,16,00,86,00,33*abd5b2cd
#BESTPOSA,FILE,0,61.0,FINESTEERING,2076,463158.200,00000000,b1f6,14102;SOL_COMPUTED,INS_PSRSP,22.87972806539,113.86867523075,42.9971,-4.3000,WGS84,0.1120,0.0982,0.1615,"",0.000,0.000,20,16,16,16,00,86,00,33*dbe01783
#BESTPOSA,FILE,0,61.0,FINESTEERING,2076,463158.400,00000000,b1f6,14102;SOL_COMPUTED,INS_PSRSP,22.87972806581,113.86867522889,42.9971,-4.3000,WGS84,0.1120,0.0982,0.1615,"",0.000,0.000,20,16,16,16,00,86,00,33*275c1697
#BESTPOSA,FILE,0,61.0,FINESTEERING,2076,463158.600,00000000,b1f6,14102;SOL_COMPUTED,INS_PSRSP,22.87972806662,113.86867522859,42.9972,-4.3000,WGS84,0.1120,0.0982,0.1615,"",0.000,0.000,20,16,16,16,00,86,00,33*b282af0a
#BESTPOSA,FILE,0,61.0,FINESTEERING,2076,463158.800,00000000,b1f6,14102;SOL_COMPUTED,INS_PSRSP,22.87972806695,113.86867522736,42.9972,-4.3000,WGS84,0.1120,0.0982,0.1615,"",0.000,0.000,20,16,16,16,00,86,00,33*05becc28
#BESTPOSA,FILE,0,61.0,FINESTEERING,2076,463159.000,00000000,b1f6,14102;SOL_COMPUTED,INS_PSRSP,22.87972806706,113.86867522724,42.9973,-4.3000,WGS84,0.1120,0.0982,0.1615,"",0.000,0.000,20,16,16,16,00,86,00,33*4895ac0b
#BESTPOSA,FILE,0,61.5,FINESTEERING,2076,463159.200,00000000,b1f6,14102;SOL_COMPUTED,INS_PSRSP,22.87972806762,113.86867522643,42.9973,-4.3000,WGS84,0.1120,0.0983,0.1615,"",0.000,0.000,20,16,16,16,00,86,00,33*91cce9c5
#BESTPOSA,FILE,0,61.5,FINESTEERING,2076,463159.400,00000000,b1f6,14102;SOL_COMPUTED,INS_PSRSP,22.87972806813,113.86867522553,42.9973,-4.3000,WGS84,0.1120,0.0983,0.1615,"",0.000,0.000,20,16,16,16,00,86,00,33*b0cb9da8
#BESTPOSA,FILE,0,61.5,FINESTEERING,2076,463159.600,00000000,b1f6,14102;SOL_COMPUTED,INS_PSRSP,22.87972806860,113.86867522407,42.9974,-4.3000,WGS84,0.1120,0.0983,0.1615,"",0.000,0.000,20,16,16,16,00,86,00,33*ead3ddf6
#BESTPOSA,FILE,0,61.5,FINESTEERING,2076,463159.800,00000000,b1f6,14102;SOL_COMPUTED,INS_PSRSP,22.87972806900,113.86867522223,42.9975,-4.3000,WGS84,0.1120,0.0983,0.1615,"",0.000,0.000,20,16,16,16,00,86,00,33*3adf9f0a
#BESTPOSA,FILE,0,59.5,FINESTEERING,2076,463160.000,00000000,b1f6,14102;SOL_COMPUTED,INS_PSRSP,22.87972806963,113.86867522196,42.9975,-4.3000,WGS84,0.1120,0.0983,0.1615,"",0.000,0.000,20,16,16,16,00,86,00,33*d070dbcf
#BESTPOSA,FILE,0,59.5,FINESTEERING,2076,463160.200,00000000,b1f6,14102;SOL_COMPUTED,INS_PSRSP,22.87972807019,113.86867522207,42.9976,-4.3000,WGS84,0.1120,0.0983,0.1615,"",0.000,0.000,20,16,16,16,00,86,00,33*6d542a7f
#BESTPOSA,FILE,0,59.5,FINESTEERING,2076,463160.400,00000000,b1f6,14102;SOL_COMPUTED,INS_PSRSP,22.87972807051,113.86867522232,42.9977,-4.3000,WGS84,0.1120,0.0983,0.1615,"",0.000,0.000,20,16,16,16,00,86,00,33*19ceafa4
#BESTPOSA,FILE,0,59.5,FINESTEERING,2076,463160.600,00000000,b1f6,14102;SOL_COMPUTED,INS_PSRSP,22.87972807117,113.86867522329,42.9978,-4.3000,WGS84,0.1120,0.0983,0.1615,"",0.000,0.000,20,16,16,16,00,86,00,33*d962f7b1
#BESTPOSA,FILE,0,59.5,FINESTEERING,2076,463160.800,00000000,b1f6,14102;SOL_COMPUTED,INS_PSRSP,22.87972807154,113.86867522319,42.9978,-4.3000,WGS84,0.1120,0.0983,0.1615,"",0.000,0.000,20,16,16,16,00,86,00,33*2ee2b3e3
#BESTPOSA,FILE,0,59.5,FINESTEERING,2076,463161.000,00000000,b1f6,14102;SOL_COMPUTED,INS_PSRSP,22.87972807244,113.86867522375,42.9979,-4.3000,WGS84,0.1120,0.0983,0.1615,"",0.000,0.000,20,16,16,16,00,86,00,33*0069304a
#BESTPOSA,FILE,0,61.5,FINESTEERING,2076,463161.200,00000000,b1f6,14102;SOL_COMPUTED,INS_PSRSP,22.87972807264,113.86867522396,42.9979,-4.3000,WGS84,0.1120,0.0983,0.1616,"",0.000,0.000,20,16,16,16,00,86,00,33*a8df0a68
#BESTPOSA,FILE,0,61.5,FINESTEERING,2076,463161.400,00000000,b1f6,14102;SOL_COMPUTED,INS_PSRSP,22.87972807332,113.86867522402,42.9980,-4.3000,WGS84,0.1120,0.0983,0.1616,"",0.000,0.000,20,16,16,16,00,86,00,33*b56d0cb4
#BESTPOSA,FILE,0,61.5,FINESTEERING,2076,463161.600,00000000,b1f6,14102;SOL_COMPUTED,INS_PSRSP,22.87972807387,113.86867522467,42.9980,-4.3000,WGS84,0.1120,0.0983,0.1616,"",0.000,0.000,20,16,16,16,00,86,00,33*d15bd3c4
#BESTPOSA,FILE,0,61.5,FINESTEERING,2076,463161.800,00000000,b1f6,14102;SOL_COMPUTED,INS_PSRSP,22.87972807445,113.86867522468,42.9981,-4.3000,WGS84,0.1120,0.0983,0.1616,"",0.000,0.000,20,16,16,16,00,86,00,33*e5eb5dc7
#BESTPOSA,FILE,0,60.0,FINESTEERING,2076,463162.000,00000000,b1f6,14102;SOL_COMPUTED,INS_PSRSP,22.87972807492,113.86867522563,42.9981,-4.3000,WGS84,0.1120,0.0983,0.1616,"",0.000,0.000,20,16,16,16,00,86,00,33*cb616b4e
#BESTPOSA,FILE,0,60.0,FINESTEERING,2076,463162.200,00000000,b1f6,14102;SOL_COMPUTED,INS_PSRSP,22.87972807503,113.86867522572,42.9982,-4.3000,WGS84,0.1120,0.0983,0.1616,"",0.000,0.000,20,16,16,16,00,86,00,33*32c33b83
#BESTPOSA,FILE,0,60.0,FINESTEERING,2076,463162.400,00000000,b1f6,14102;SOL_COMPUTED,INS_PSRSP,22.87972807559,113.86867522641,42.9982,-4.3000,WGS84,0.1120,0.0983,0.1616,"",0.000,0.000,20,16,16,16,00,86,00,33*f7a1251a
#BESTPOSA,FILE,0,60.0,FINESTEERING,2076,463162.600,00000000,b1f6,14102;SOL_COMPUTED,INS_PSRSP,22.87972807595,113.86867522713,42.9982,-4.3000,WGS84,0.1120,0.0983,0.1616,"",0.000,0.000,20,16,16,16,00,86,00,33*c54aa804
#BESTPOSA,FILE,0,60.0,FINESTEERING,2076,463162.800,00000000,b1f6,14102;SOL_COMPUTED,INS_PSRSP,22.87972807626,113.86867522750,42.9983,-4.3000,WGS84,0.1120,0.0983,0.1616,"",0.000,0.000,20,16,16,16,00,86,00,33*58f1cb1d
#BESTPOSA,FILE,0,60.0,FINESTEERING,2076,463163.000,00000000,b1f6,14102;SOL_COMPUTED,INS_PSRSP,22.87972807665,113.86867522829,42.9983,-4.3000,WGS84,0.1120,0.0983,0.1616,"",0.000,0.000,20,16,16,16,00,86,00,33*554f13c0
#BESTPOSA,FILE,0,61.0,FINESTEERING,2076,463163.200,00000000,b1f6,14102;SOL_COMPUTED,INS_PSRSP,22.87972807673,113.86867522865,42.9984,-4.3000,WGS84,0.1120,0.0983,0.1616,"",0.000,0.000,20,16,16,16,00,86,00,33*d86487f1
#BESTPOSA,FILE,0,61.0,FINESTEERING,2076,463163.400,00000000,b1f6,14102;SOL_COMPUTED,INS_PSRSP,22.87972807709,113.86867522949,42.9984,-4.3000,WGS84,0.1120,0.0983,0.1616,"",0.000,0.000,20,16,16,16,00,86,00,33*1573f4aa
#BESTPOSA,FILE,0,61.0,FINESTEERING,2076,463163.600,00000000,b1f6,14102;SOL_COMPUTED,INS_PSRSP,22.87972807729,113.86867523024,42.9984,-4.3000,WGS84,0.1120,0.0983,0.1616,"",0.000,0.000,20,16,16,16,00,86,00,33*76107276
#BESTPOSA,FILE,0,61.0,FINESTEERING,2076,463163.800,00000000,b1f6,14102;SOL_COMPUTED,INS_PSRSP,22.87972807744,113.86867523070,42.9985,-4.3000,WGS84,0.1120,0.0983,0.1616,"",0.000,0.000,20,16,16,16,00,86,00,33*1c57f2c3
#BESTPOSA,FILE,0,59.5,FINESTEERING,2076,463164.000,00000000,b1f6,14102;SOL_COMPUTED,INS_PSRSP,22.87972807770,113.86867523147,42.9985,-4.3000,WGS84,0.1120,0.0983,0.1616,"",0.000,0.000,20,16,16,16,00,86,00,33*52516cf2
#BESTPOSA,FILE,0,59.5,FINESTEERING,2076,463164.200,00000000,b1f6,14102;SOL_COMPUTED,INS_PSRSP,22.87972807765,113.86867523159,42.9985,-4.3000,WGS84,0.1120,0.0983,0.1616,"",0.000,0.000,20,16,16,16,00,86,00,33*a341b80c
#BESTPOSA,FILE,0,59.5,FINESTEERING,2076,463164.400,00000000,b1f6,14102;SOL_COMPUTED,INS_PSRSP,22.87972807808,113.86867523234,42.9986,-4.3000,WGS84,0.1120,0.0983,0.1616,"",0.000,0.000,20,16,16,16,00,86,00,33*fcd41c5e
#BESTPOSA,FILE,0,59.5,FINESTEERING,2076,463164.600,00000000,b1f6,14102;SOL_COMPUTED,INS_PSRSP,22.87972807792,113.86867523302,42.9986,-4.3000,WGS84,0.1120,0.0983,0.1616,"",0.000,0.000,20,16,16,16,00,86,00,33*490b1afd
#BESTPOSA,FILE,0,59.5,FINESTEERING,2076,463164.800,00000000,b1f6,14102;SOL_COMPUTED,INS_PSRSP,22.87972807788,113.86867523337,42.9986,-4.3000,WGS84,0.1120,0.0983,0.1616,"",0.000,0.000,20,16,16,16,00,86,00,33*ea1315d7
#BESTPOSA,FILE,0,59.5,FINESTEERING,2076,463165.000,00000000,b1f6,14102;SOL_COMPUTED,INS_PSRSP,22.87972807796,113.86867523409,42.9987,-4.3000,WGS84,0.1120,0.0983,0.1616,"",0.000,0.000,20,16,16,16,00,86,00,33*cf9382ec
#BESTPOSA,FILE,0,61.5,FINESTEERING,2076,463165.200,00000000,b1f6,14102;SOL_COMPUTED,INS_PSRSP,22.87972807796,113.86867523435,42.9987,-4.3000,WGS84,0.1120,0.0983,0.1616,"",0.000,0.000,20,16,16,16,00,86,00,33*d2d5257f
#BESTPOSA,FILE,0,61.5,FINESTEERING,2076,463165.400,00000000,b1f6,14102;SOL_COMPUTED,INS_PSRSP,22.87972807790,113.86867523540,42.9987,-4.3000,WGS84,0.1120,0.0983,0.1616,"",0.000,0.000,20,16,16,16,00,86,00,33*7bc03bab
#BESTPOSA,FILE,0,61.5,FINESTEERING,2076,463165.600,00000000,b1f6,14102;SOL_COMPUTED,INS_PSRSP,22.87972807767,113.86867523526,42.9988,-4.3000,WGS84,0.1120,0.0983,0.1616,"",0.000,0.000,20,16,16,16,00,86,00,33*3efaf9d5
