     3.02           OBSERVATION DATA    G (GPS)             RINEX VERSION / TYPE
Convert 2.6.6       NovAtel             20210624 014312 UTC PGM / RUN BY / DATE 
RINEX Version 3.02 Observation File                         COMMENT             
                                                            MARKER NAME         
                                                            MARKER NUMBER       
                                                            MARKER TYPE         
                                                            OBSERVER / AGENCY   
                    NovAtel GPSCard                         REC # / TYPE / VERS 
                                                            ANT # / TYPE        
 -2331409.6621  5385381.6509  2490192.4855                  APPROX POSITION XYZ 
        0.0000        0.0000        0.0000                  ANTENNA: DELTA H/E/N
G    8 C1C L1C D1C S1C C2W L2W D2W S2W                      SYS / # / OBS TYPES 
DBHZ                                                        SIGNAL STRENGTH UNIT
     1.000                                                  INTERVAL            
  2021     4    23     8    31   24.0000000     GPS         TIME OF FIRST OBS   
  2021     4    23    10    22   32.0000000     GPS         TIME OF LAST OBS    
G L1C  0.00000  14 G14 G03 G19 G22 G06 G02 G28 G17 G30 G09  SYS / PHASE SHIFT   
                   G01 G04 G12 G05                          SYS / PHASE SHIFT   
G L2W  0.00000  14 G14 G03 G28 G17 G19 G06 G02 G22 G30 G01  SYS / PHASE SHIFT   
                   G09 G04 G12 G05                          SYS / PHASE SHIFT   
                                                            GLONASS SLOT / FRQ #
 C1C  -71.950 C2C  -71.950 C2P  -71.950                     GLONASS COD/PHS/BIS 
Leap Seconds Unknown                                        COMMENT             
                                                            END OF HEADER       
> 2021 04 23 08 31 26.0000000  0  6      -0.000000000000
G14  20280825.055 8 106576453.559 8      -899.082          50.000    20280828.820 8  83046601.922 8      -700.586          49.000  
G22  24835793.336 6 130512972.57016     -3117.238          38.000                                                                  
G03  22322091.320 7 117303383.426 7     -1897.211          45.000    22322098.039 7  91405256.148 7     -1478.340          45.000  
G06  21438071.680 6 112657826.71516       891.750          41.000                                                                  
G02  24051662.391 5 126392338.06315      1863.234          30.000                                                                  
G28  20320936.156 7 106787250.99617       271.676          47.000    20320937.992 7  83210846.25817       211.695          47.000  
> 2021 04 23 08 31 27.0000000  0  3      -0.000000000000
G14  20280996.313 8 106577353.500 8      -900.355          48.000    20281000.063 7  83047303.168 7      -701.578          46.000  
G03  22322452.102 7 117305279.281 7     -1893.691          45.000    22322458.813 7  91406733.445 7     -1475.602          44.000  
G28  20320884.391 7 106786979.48427       271.840          46.000    20320886.688 7  83210634.67627       211.824          46.000  
> 2021 04 23 08 31 28.0000000  0  6      -0.000000000000
G14  20281168.063 7 106578256.066 7      -904.785          47.000    20281171.813 7  83048006.457 7      -705.031          46.000  
G03  22322812.133 7 117307171.305 7     -1890.313          45.000    22322818.852 7  91408207.750 7     -1472.965          46.000  
G19  21861158.477 6 114881169.25816      1394.559          37.000                                                                  
G17  21635249.742 8 113694006.19118       616.984          48.000    21635251.648 8  88592733.23418       480.766          48.000  
G02  24050988.367 5 126388796.66815      1795.766          33.000                                                                  
G28  20320833.141 7 106786708.42227       270.352          46.000    20320835.508 7  83210423.45327       210.660          45.000  
> 2021 04 23 08 31 29.0000000  0  5      -0.000000000000
G14  20281340.313 7 106579161.242 7      -907.102          44.000    20281344.063 7  83048711.789 7      -706.836          42.000  
G03  22323171.234 7 117309058.367 7     -1885.797          45.000    22323177.977 7  91409678.180 7     -1469.453          46.000  
G19  21860895.023 6 114879778.33216      1390.352          39.000                                                                  
G02  24050644.086 5 126386999.43815      1785.496          35.000                                                                  
G28  20320781.852 7 106786438.03527       269.586          42.000    20320783.602 7  83210212.77027       210.070          42.000  
> 2021 04 23 08 31 30.0000000  0  6      -0.000000000000
G14  20281513.102 7 106580069.273 7      -908.746          44.000    20281516.867 7  83049419.359 7      -708.113          44.000  
G03  22323529.172 7 117310939.441 7     -1878.629          44.000    22323535.953 7  91411143.953 7     -1463.867          43.000  
G19  21860631.367 6 114878392.50816      1397.914          40.000                                                                  
G06  21437393.258 6 112654261.06316       891.594          40.000                                                                  
G17  21635012.125 7 113692760.00427       633.879          43.000    21635015.063 7  88591765.64527       493.930          43.000  
G28  20320730.039 7 106786167.55127       269.770          42.000    20320733.172 6  83210002.00426       210.211          41.000  
> 2021 04 23 08 31 31.0000000  0  6      -0.000000000000
G14  20281686.211 7 106580978.941 7      -909.977          47.000    20281689.953 7  83050128.215 7      -709.066          46.000  
G03  22323886.313 7 117312816.238 7     -1875.785          46.000    22323893.102 7  91412606.398 7     -1461.648          46.000  
G19  21860363.766 6 114876992.67626      1401.090          39.000                                                                  
G06  21437223.922 7 112653370.21527       890.926          44.000                                                                  
G17  21634891.539 7 113692125.57827       635.676          43.000    21634893.523 7  88591271.34427       495.332          43.000  
G28  20320678.648 7 106785896.891 7       270.867          42.000    20320680.938 7  83209791.121 7       211.074          43.000  
> 2021 04 23 08 31 32.0000000  0  6      -0.000000000000
G14  20281859.492 7 106581889.496 7      -910.414          47.000    20281863.211 7  83050837.773 7      -709.402          46.000  
G03  22324243.422 7 117314692.617 7     -1876.324          47.000    22324250.156 7  91414068.512 7     -1462.066          45.000  
G19  21860096.938 6 114875591.059 6      1401.680          41.000                                                                  
G06  21437054.289 7 112652479.074 7       890.660          43.000                                                                  
G17  21634770.578 7 113691489.406 7       635.875          43.000    21634772.352 7  88590775.512 7       495.488          43.000  
G28  20320627.484 7 106785626.734 7       270.285          43.000    20320629.641 7  83209580.641 7       210.621          42.000  
> 2021 04 23 08 31 33.0000000  0  6      -0.000000000000
G14  20282032.734 7 106582799.824 7      -910.406          47.000    20282036.422 7  83051547.141 7      -709.395          45.000  
G03  22324600.469 8 117316568.742 8     -1876.195          48.000    22324607.227 7  91415530.438 7     -1461.965          46.000  
G19  21859831.078 6 114874189.230 6      1402.117          40.000                                                                  
G06  21436884.148 7 112651587.965 7       891.125          43.000                                                                  
G17  21634649.930 7 113690852.902 7       637.051          44.000    21634650.703 7  88590279.531 7       496.402          44.000  
G28  20320576.430 7 106785356.336 7       270.242          43.000    20320578.469 7  83209369.957 7       210.594          43.000  
